id,name,address,category,location,lat,lng,numReviews,reviews,polarity,details,originalId,subCategory
129451,Hotel Condado,"Aribau, 201, Sarrià-St. Gervasi, 08021 Barcelona",accommodation,Barcelona,41.395604210012,2.1495618671179,17,http://tour-pedia.org/api/getReviewsByPlaceId?placeId=129451,10,http://tour-pedia.org/api/getPlaceDetails?id=129451,,
147077,Can Meli,"Carrer d'Arnau d'Oms, 45, Barcelona, Spain",restaurant,Barcelona,41.430804,2.177189,10,http://tour-pedia.org/api/getReviewsByPlaceId?placeId=147077,9,http://tour-pedia.org/api/getPlaceDetails?id=147077,,
142940,Hostel One Paralelo,"Salvá, 62, Sants-Montjuïc, 08004 Barcelona",accommodation,Barcelona,41.372191331175,2.1651877462864,10,http://tour-pedia.org/api/getReviewsByPlaceId?placeId=142940,9,http://tour-pedia.org/api/getPlaceDetails?id=142940,,
134996,Central Garden Hostel One,c/ Roger de Iluria 41,accommodation,Barcelona,41.392639,2.169211,10,http://tour-pedia.org/api/getReviewsByPlaceId?placeId=134996,9,http://tour-pedia.org/api/getPlaceDetails?id=134996,4c8f2393a8de224bef3b2d01,Hostel
131257,Cinemateca,"Carrer de Pau Claris, 120, Barcelona, Spain",restaurant,Barcelona,41.392425,2.167631,11,http://tour-pedia.org/api/getReviewsByPlaceId?placeId=131257,9,http://tour-pedia.org/api/getPlaceDetails?id=131257,,
154618,La bodegueta de Verdaguer,Provenza 366,restaurant,Barcelona,41.399766325982,2.1682059498806,11,http://tour-pedia.org/api/getReviewsByPlaceId?placeId=154618,9,http://tour-pedia.org/api/getPlaceDetails?id=154618,4f5497d3e4b0c41606ba6029,Mediterranean Restaurant
134121,Conde Drácula,"Via Júlia, 68, Barcelona, Spain",restaurant,Barcelona,41.441045,2.177234,12,http://tour-pedia.org/api/getReviewsByPlaceId?placeId=134121,9,http://tour-pedia.org/api/getPlaceDetails?id=134121,,
131863,Cinemes Girona,"Carrer de Girona, 175, Barcelona, Spain",attraction,Barcelona,41.399582,2.164637,12,http://tour-pedia.org/api/getReviewsByPlaceId?placeId=131863,9,http://tour-pedia.org/api/getPlaceDetails?id=131863,,
158105,Ladune,CC La Maquinista,restaurant,Barcelona,41.44002653236,2.1984545016364,13,http://tour-pedia.org/api/getReviewsByPlaceId?placeId=158105,9,http://tour-pedia.org/api/getPlaceDetails?id=158105,4fdcd323e4b0767cc6f7bcca,Breakfast Spot
135933,Río Dragón Restaurant,"Carrer de l'Oblit, 3, Barcelona, Spain",restaurant,Barcelona,41.420498,2.179414,14,http://tour-pedia.org/api/getReviewsByPlaceId?placeId=135933,9,http://tour-pedia.org/api/getPlaceDetails?id=135933,,
132542,Nice Spice,"Pujades, 207",restaurant,Barcelona,41.40322969482,2.2026943765794,14,http://tour-pedia.org/api/getReviewsByPlaceId?placeId=132542,9,http://tour-pedia.org/api/getPlaceDetails?id=132542,4bf93e675ec320a1e5df89d3,Indian Restaurant
139691,Mas Q Menos,CC Las Arenas. Planta Sotano Local S-21,restaurant,Barcelona,41.375945742437,2.149256964623,14,http://tour-pedia.org/api/getReviewsByPlaceId?placeId=139691,9,http://tour-pedia.org/api/getPlaceDetails?id=139691,4d91de2b270e6ea80b4f5cff,Diner
131585,Ayre Hotel Gran Vía,"Gran Vía, 322, Sants-Montjuïc, 08004 Barcelona",accommodation,Barcelona,41.373303402146,2.1472263336182,14,http://tour-pedia.org/api/getReviewsByPlaceId?placeId=131585,9,http://tour-pedia.org/api/getPlaceDetails?id=131585,,
129453,Fira Palace,"Avenida Rius y Taulet, 1-3, Sants-Montjuïc, 08004 Barcelona",accommodation,Barcelona,41.372787121788,2.1549215912819,15,http://tour-pedia.org/api/getReviewsByPlaceId?placeId=129453,9,http://tour-pedia.org/api/getPlaceDetails?id=129453,,
133684,Feetup Yellow Nest Hostel Barcelona,"Passatge Regente Mendieta, 5, Les Corts, 08028 Barcelona",accommodation,Barcelona,41.377131598832,2.1238267421722,20,http://tour-pedia.org/api/getReviewsByPlaceId?placeId=133684,9,http://tour-pedia.org/api/getPlaceDetails?id=133684,,
143445,Merbeyé,Plaça Doctor Andreu 1,attraction,Barcelona,41.41611624969,2.1314120292664,41,http://tour-pedia.org/api/getReviewsByPlaceId?placeId=143445,9,http://tour-pedia.org/api/getPlaceDetails?id=143445,4e071b02d22d658532a3d676,Cocktail Bar
132523,El Pibe,"Avinguda Meridiana, 430, Barcelona, Spain",restaurant,Barcelona,41.433519,2.183697,10,http://tour-pedia.org/api/getReviewsByPlaceId?placeId=132523,8,http://tour-pedia.org/api/getPlaceDetails?id=132523,,
162603,Restaurante Jardín,"C. d'Àvila, 143",restaurant,Barcelona,41.399636314811,2.189519405365,10,http://tour-pedia.org/api/getReviewsByPlaceId?placeId=162603,8,http://tour-pedia.org/api/getPlaceDetails?id=162603,50ae7a10e412de7a8077328d,Spanish Restaurant
133816,Diagonal amb Passeig de Gràcia,"Passeig de Gràcia, 110",attraction,Barcelona,41.396214782485,2.1600736984356,10,http://tour-pedia.org/api/getReviewsByPlaceId?placeId=133816,8,http://tour-pedia.org/api/getPlaceDetails?id=133816,4c454ca68c1f20a18ca33d99,Other Great Outdoors
138826,Sabor.es,Rambla de Poblenou 92,attraction,Barcelona,41.401915603879,2.2000812269609,10,http://tour-pedia.org/api/getReviewsByPlaceId?placeId=138826,8,http://tour-pedia.org/api/getPlaceDetails?id=138826,4d78afbae9756a3192dcf32e,Spanish Restaurant
137223,Feetup Mellow Eco Hostel Barcelona,"Carrer d'Aguilar, 54, Barcelona, Spain",accommodation,Barcelona,41.425906,2.168591,10,http://tour-pedia.org/api/getReviewsByPlaceId?placeId=137223,8,http://tour-pedia.org/api/getPlaceDetails?id=137223,,
129985,Rembrandt,"Carrer de la Marina, 20, Barcelona, Spain",restaurant,Barcelona,41.388809,2.195372,11,http://tour-pedia.org/api/getReviewsByPlaceId?placeId=129985,8,http://tour-pedia.org/api/getPlaceDetails?id=129985,,
131261,Flaires del cafè,"Avinguda de Sarrià, 67, Barcelona, Spain",restaurant,Barcelona,41.390818,2.140823,11,http://tour-pedia.org/api/getReviewsByPlaceId?placeId=131261,8,http://tour-pedia.org/api/getPlaceDetails?id=131261,,
134460,La Cantonada de Prim,"Rambla de Prim, 160, Barcelona, Spain",restaurant,Barcelona,41.420289,2.208342,11,http://tour-pedia.org/api/getReviewsByPlaceId?placeId=134460,8,http://tour-pedia.org/api/getPlaceDetails?id=134460,,
137634,Parc de Diagonal-Mar,"Barcelona, Spain",attraction,Barcelona,41.407808,2.213706,11,http://tour-pedia.org/api/getReviewsByPlaceId?placeId=137634,8,http://tour-pedia.org/api/getPlaceDetails?id=137634,,
129528,Kennedy Irish Sailing Club,"Moll Mestral, 26-27-28",attraction,Barcelona,41.387986,2.199127,11,http://tour-pedia.org/api/getReviewsByPlaceId?placeId=129528,8,http://tour-pedia.org/api/getPlaceDetails?id=129528,4adcda4ef964a5208d4021e3,Bar
130301,Hotel Via Augusta,"Vía Augusta, 63, Sarrià-St. Gervasi, 08006 Barcelona",accommodation,Barcelona,41.400046754566,2.1514528244734,11,http://tour-pedia.org/api/getReviewsByPlaceId?placeId=130301,8,http://tour-pedia.org/api/getPlaceDetails?id=130301,,
130580,Catalonia Rigoletto,"Sabino de Arana, 22-24, Les Corts, 08028 Barcelona",accommodation,Barcelona,41.385820688598,2.1256613731384,11,http://tour-pedia.org/api/getReviewsByPlaceId?placeId=130580,8,http://tour-pedia.org/api/getPlaceDetails?id=130580,,
131428,Ciutat de Barcelona,"Princesa, 33-35, Ciutat Vella, 08003 Barcelona",accommodation,Barcelona,41.385841818727,2.1810288727283,11,http://tour-pedia.org/api/getReviewsByPlaceId?placeId=131428,8,http://tour-pedia.org/api/getPlaceDetails?id=131428,,
133316,Hostal Nuevo Colon,"Avenida Marqués de Argentera, 19, Ciutat Vella, 08003 Barcelona",accommodation,Barcelona,41.384981515061,2.1850508451462,11,http://tour-pedia.org/api/getReviewsByPlaceId?placeId=133316,8,http://tour-pedia.org/api/getPlaceDetails?id=133316,,
141427,Restaurante Galician Grill,"Carrer de la Foneria, 7, Barcelona, Spain",restaurant,Barcelona,41.359694,2.136349,12,http://tour-pedia.org/api/getReviewsByPlaceId?placeId=141427,8,http://tour-pedia.org/api/getPlaceDetails?id=141427,,
130957,Masaya Sushi Restaurant,c/ bisbe sevilla,restaurant,Barcelona,41.404046462904,2.1343192836872,12,http://tour-pedia.org/api/getReviewsByPlaceId?placeId=130957,8,http://tour-pedia.org/api/getPlaceDetails?id=130957,4bad2b92f964a5203f353be3,Asian Restaurant
138249,Samba Brasil Horta,Tajo (Horta),attraction,Barcelona,41.429899257796,2.1620838350163,12,http://tour-pedia.org/api/getReviewsByPlaceId?placeId=138249,8,http://tour-pedia.org/api/getPlaceDetails?id=138249,,
130619,Twist Barcelona Cocteleria,"Rafael Batlle, 11",attraction,Barcelona,41.395499581209,2.1275281906128,12,http://tour-pedia.org/api/getReviewsByPlaceId?placeId=130619,8,http://tour-pedia.org/api/getPlaceDetails?id=130619,4b9aad97f964a52039cc35e3,Cocktail Bar
137224,Feetup Garden House Hostel Barcelona,"Carrer d'Hedilla, 58, Barcelona, Spain",accommodation,Barcelona,41.435972,2.161216,12,http://tour-pedia.org/api/getReviewsByPlaceId?placeId=137224,8,http://tour-pedia.org/api/getPlaceDetails?id=137224,,
129672,Can Pineda,"Carrer de Sant Joan de Malta, 55, Barcelona, Spain",restaurant,Barcelona,41.408562,2.192879,13,http://tour-pedia.org/api/getReviewsByPlaceId?placeId=129672,8,http://tour-pedia.org/api/getPlaceDetails?id=129672,,
135422,El Mató de Pedralbes,"Calle Bisbe Catalá, 10, Barcelona, Spain",restaurant,Barcelona,41.395409,2.114017,13,http://tour-pedia.org/api/getReviewsByPlaceId?placeId=135422,8,http://tour-pedia.org/api/getPlaceDetails?id=135422,,
129653,Acontraluz,Milanesat 19,restaurant,Barcelona,41.398279126263,2.1302632306105,13,http://tour-pedia.org/api/getReviewsByPlaceId?placeId=129653,8,http://tour-pedia.org/api/getPlaceDetails?id=129653,4adcda53f964a520684221e3,Mediterranean Restaurant
159594,Chocolat-Box,,restaurant,Barcelona,41.40685,2.174542,13,http://tour-pedia.org/api/getReviewsByPlaceId?placeId=159594,8,http://tour-pedia.org/api/getPlaceDetails?id=159594,50184314e4b0a726b14730b6,Cupcake Shop
132136,Parc del Guinardó,"Calle Garriga i Roca, 1-13, Barcelona, Spain",attraction,Barcelona,41.419459,2.167354,13,http://tour-pedia.org/api/getReviewsByPlaceId?placeId=132136,8,http://tour-pedia.org/api/getPlaceDetails?id=132136,,
137372,Avinguda Gaudí,Avinguda Gaudí,attraction,Barcelona,41.406524921043,2.174391746521,13,http://tour-pedia.org/api/getReviewsByPlaceId?placeId=137372,8,http://tour-pedia.org/api/getPlaceDetails?id=137372,4d2c2f95ebacb1f7722f1250,Other Great Outdoors
154000,Hotel DO Plaça Reial G.L.,"Plaça Reial, 1 , Ciutat Vella, 08001 Barcelona",accommodation,Barcelona,41.379998573343,2.1749496459961,13,http://tour-pedia.org/api/getReviewsByPlaceId?placeId=154000,8,http://tour-pedia.org/api/getPlaceDetails?id=154000,,
131329,Restaurante Gracia,"Avinguda del Paraŀlel, 32, Barcelona, Spain",restaurant,Barcelona,41.374952,2.17317,14,http://tour-pedia.org/api/getReviewsByPlaceId?placeId=131329,8,http://tour-pedia.org/api/getPlaceDetails?id=131329,,
130228,Evenia Rossello,"Rossello, 191, L'Eixample, 08036 Barcelona",accommodation,Barcelona,41.391992406769,2.155474126339,14,http://tour-pedia.org/api/getReviewsByPlaceId?placeId=130228,8,http://tour-pedia.org/api/getPlaceDetails?id=130228,,
130948,Hotel Curious,"Carrer del Carme, 25, Ciutat Vella, 08001 Barcelona",accommodation,Barcelona,41.382343179508,2.1704944968224,14,http://tour-pedia.org/api/getReviewsByPlaceId?placeId=130948,8,http://tour-pedia.org/api/getPlaceDetails?id=130948,,
158695,Telefèric Restaurant,"Plaça del Doctor Letamendi, 27, Baixos, Barcelona, Spain",restaurant,Barcelona,41.389519,2.160796,15,http://tour-pedia.org/api/getReviewsByPlaceId?placeId=158695,8,http://tour-pedia.org/api/getPlaceDetails?id=158695,,
142770,Ugarit,"Paseig Sant Antoni, 21",restaurant,Barcelona,41.377160257149,2.1374023209797,15,http://tour-pedia.org/api/getReviewsByPlaceId?placeId=142770,8,http://tour-pedia.org/api/getPlaceDetails?id=142770,4df3709c6284fefe8fc233f4,Food
145006,H10 Casanova,"Gran Via de les Corts Catalanes, 559",restaurant,Barcelona,41.384130256019,2.1607902646065,15,http://tour-pedia.org/api/getReviewsByPlaceId?placeId=145006,8,http://tour-pedia.org/api/getPlaceDetails?id=145006,4e32f1b362845cff5a395396,Hotel
133184,Silken Concordia,"Paral·lel, 115, Sants-Montjuïc, 08004 Barcelona",accommodation,Barcelona,41.374618741188,2.1609377861023,15,http://tour-pedia.org/api/getReviewsByPlaceId?placeId=133184,8,http://tour-pedia.org/api/getPlaceDetails?id=133184,,
166509,Chéri,Enrique granados 122,restaurant,Barcelona,41.394536974827,2.1535449725425,16,http://tour-pedia.org/api/getReviewsByPlaceId?placeId=166509,8,http://tour-pedia.org/api/getPlaceDetails?id=166509,51a8fa09498e444253870557,Restaurant
129646,La Balsa,"Carrer de la Infanta Isabel, 4, Barcelona, Spain",restaurant,Barcelona,41.410813,2.130358,17,http://tour-pedia.org/api/getReviewsByPlaceId?placeId=129646,8,http://tour-pedia.org/api/getPlaceDetails?id=129646,,
163972,Parisii Bistrot,"Carrer d'Aribau, 31, Barcelona, Spain",restaurant,Barcelona,41.387112,2.160712,17,http://tour-pedia.org/api/getReviewsByPlaceId?placeId=163972,8,http://tour-pedia.org/api/getPlaceDetails?id=163972,,
135493,La taverna de L'EIXAMPLE,Gran Via 688,restaurant,Barcelona,41.393127600245,2.1734459134255,17,http://tour-pedia.org/api/getReviewsByPlaceId?placeId=135493,8,http://tour-pedia.org/api/getPlaceDetails?id=135493,4cab223f76d3a093c849296b,South American Restaurant
167434,L'eggs de Paco Perez,,restaurant,Barcelona,41.397080268329,2.1590134955223,17,http://tour-pedia.org/api/getReviewsByPlaceId?placeId=167434,8,http://tour-pedia.org/api/getPlaceDetails?id=167434,51dd3f21498e01952cb0c963,Mediterranean Restaurant
164803,Soda Bus,Aribau 125,attraction,Barcelona,41.391378682092,2.155122756958,17,http://tour-pedia.org/api/getReviewsByPlaceId?placeId=164803,8,http://tour-pedia.org/api/getPlaceDetails?id=164803,5143a78be4b075188e37c3bd,Cocktail Bar
130286,Restaurante Dos Torres,"Via Augusta, 300, Barcelona, Spain",restaurant,Barcelona,41.397838,2.128493,18,http://tour-pedia.org/api/getReviewsByPlaceId?placeId=130286,8,http://tour-pedia.org/api/getPlaceDetails?id=130286,,
129834,El Reloj,"Via Laietana, 40",restaurant,Barcelona,41.385775035115,2.1762060092637,18,http://tour-pedia.org/api/getReviewsByPlaceId?placeId=129834,8,http://tour-pedia.org/api/getPlaceDetails?id=129834,4b4add37f964a520418f26e3,Spanish Restaurant
160972,La República,mercé 13,restaurant,Barcelona,41.380034761143,2.1802558982307,18,http://tour-pedia.org/api/getReviewsByPlaceId?placeId=160972,8,http://tour-pedia.org/api/getPlaceDetails?id=160972,5053a730e4b09ebc6e6a0f39,Argentinian Restaurant
162576,La cantina mexicana,Carrer De Valencia 427,restaurant,Barcelona,41.402251669495,2.1759941381032,18,http://tour-pedia.org/api/getReviewsByPlaceId?placeId=162576,8,http://tour-pedia.org/api/getPlaceDetails?id=162576,50acfa26e4b0b639ca69263a,Mexican Restaurant
131436,Hotel Neri,"San Sever, 5, Ciutat Vella, 08002 Barcelona",accommodation,Barcelona,41.383215592927,2.1752768754959,18,http://tour-pedia.org/api/getReviewsByPlaceId?placeId=131436,8,http://tour-pedia.org/api/getPlaceDetails?id=131436,,
162418,Café cometa,Carrer Parlament 20,restaurant,Barcelona,41.376106653502,2.1620598471766,19,http://tour-pedia.org/api/getReviewsByPlaceId?placeId=162418,8,http://tour-pedia.org/api/getPlaceDetails?id=162418,50a3604ae4b0cd9e9db1839d,Coffee Shop
144367,Koska,Blai 8,restaurant,Barcelona,41.373106,2.166025,20,http://tour-pedia.org/api/getReviewsByPlaceId?placeId=144367,8,http://tour-pedia.org/api/getPlaceDetails?id=144367,4e22c530d16474063213d7cb,Tapas Restaurant
134804,Casablanca,Dos de Maig 277,attraction,Barcelona,41.409022891505,2.1795407774389,21,http://tour-pedia.org/api/getReviewsByPlaceId?placeId=134804,8,http://tour-pedia.org/api/getPlaceDetails?id=134804,4c834cf0dc018cfadcc2d76c,Cocktail Bar
130123,Dos Cielos,"Carrer de Pere IV, 272 - 286, Barcelona, Spain",restaurant,Barcelona,41.406255,2.200565,25,http://tour-pedia.org/api/getReviewsByPlaceId?placeId=130123,8,http://tour-pedia.org/api/getPlaceDetails?id=130123,,
130285,Restaurante parrilla Alfonsina,"Carrer de la Diputació, 379, Barcelona, Spain",restaurant,Barcelona,41.39707,2.175695,25,http://tour-pedia.org/api/getReviewsByPlaceId?placeId=130285,8,http://tour-pedia.org/api/getPlaceDetails?id=130285,,
135207,Restaurante Central Park Barcelona,"C/ Pedro i Pons, 9-11, Barcelona, Spain",restaurant,Barcelona,41.389786,2.122303,27,http://tour-pedia.org/api/getReviewsByPlaceId?placeId=135207,8,http://tour-pedia.org/api/getPlaceDetails?id=135207,,
136935,Puerto Madero Restaurant,"Carrer de París, 175, Barcelona, Spain",restaurant,Barcelona,41.392805,2.151997,27,http://tour-pedia.org/api/getReviewsByPlaceId?placeId=136935,8,http://tour-pedia.org/api/getPlaceDetails?id=136935,,
156309,A Casa Portuguesa,"Carrer d'Aragó, 111, Barcelona, Spain",restaurant,Barcelona,41.382678,2.15209,28,http://tour-pedia.org/api/getReviewsByPlaceId?placeId=156309,8,http://tour-pedia.org/api/getPlaceDetails?id=156309,,
159565,Fidalga Barcelona,"Carrer de la Marina, 290, Barcelona, Spain",restaurant,Barcelona,41.405072,2.173868,28,http://tour-pedia.org/api/getReviewsByPlaceId?placeId=159565,8,http://tour-pedia.org/api/getPlaceDetails?id=159565,,
136156,Restaurante Nihon Sakari,"Carrer de Girona, 86, Barcelona, Spain",restaurant,Barcelona,41.395591,2.170144,28,http://tour-pedia.org/api/getReviewsByPlaceId?placeId=136156,8,http://tour-pedia.org/api/getPlaceDetails?id=136156,,
155309,Rabipelao Rawalistan. Tropical Bistro.,"Carrer de la Riera Alta, 50, Barcelona, Spain",restaurant,Barcelona,41.380432,2.16433,29,http://tour-pedia.org/api/getReviewsByPlaceId?placeId=155309,8,http://tour-pedia.org/api/getPlaceDetails?id=155309,,
130130,DiR Castillejos,"Carrer de los Castillejos, 388, Barcelona, Spain",attraction,Barcelona,41.41254,2.170511,29,http://tour-pedia.org/api/getReviewsByPlaceId?placeId=130130,8,http://tour-pedia.org/api/getPlaceDetails?id=130130,,
156373,Mama's Cafe,"Carrer de Torrijos, 26, Barcelona, Spain",restaurant,Barcelona,41.403214,2.159068,30,http://tour-pedia.org/api/getReviewsByPlaceId?placeId=156373,8,http://tour-pedia.org/api/getPlaceDetails?id=156373,,
134516,Addis Abeba,"Carrer del Vallespir, 44, Barcelona, Spain",restaurant,Barcelona,41.379441,2.137088,35,http://tour-pedia.org/api/getReviewsByPlaceId?placeId=134516,8,http://tour-pedia.org/api/getPlaceDetails?id=134516,,
163067,Anauco Gourmet,"Carrer de València, 428, Barcelona, Spain",restaurant,Barcelona,41.402072,2.175876,35,http://tour-pedia.org/api/getReviewsByPlaceId?placeId=163067,8,http://tour-pedia.org/api/getPlaceDetails?id=163067,,
158226,Collage Art & Cocktails Social Club,Consellers 4 Bajos,attraction,Barcelona,41.382556573657,2.181388596007,35,http://tour-pedia.org/api/getReviewsByPlaceId?placeId=158226,8,http://tour-pedia.org/api/getPlaceDetails?id=158226,4fe21f0ee4b0f221477ed14a,Cocktail Bar
139841,Balthazar,Rossello 189,restaurant,Barcelona,41.392058516437,2.1553437553733,41,http://tour-pedia.org/api/getReviewsByPlaceId?placeId=139841,8,http://tour-pedia.org/api/getPlaceDetails?id=139841,4d96438a744f37044fddb557,Mediterranean Restaurant
163532,Timesburg,"París, 95",restaurant,Barcelona,41.389164678368,2.1470891342355,42,http://tour-pedia.org/api/getReviewsByPlaceId?placeId=163532,8,http://tour-pedia.org/api/getPlaceDetails?id=163532,50ee85ede4b0e2ef7bd99399,Burger Joint
130314,Traspaso,Ramon Turró,restaurant,Barcelona,41.405055,2.209723,43,http://tour-pedia.org/api/getReviewsByPlaceId?placeId=130314,8,http://tour-pedia.org/api/getPlaceDetails?id=130314,4b800706f964a520ed4b30e3,Mediterranean Restaurant
131397,Grand Hotel Central,"Via Laietana, 30, Ciutat Vella, 08003 Barcelona",accommodation,Barcelona,41.384963403282,2.1775929629803,43,http://tour-pedia.org/api/getReviewsByPlaceId?placeId=131397,8,http://tour-pedia.org/api/getPlaceDetails?id=131397,,
129832,Restaurante Big Fish,"Carrer Comercial, 9, Barcelona, Spain",restaurant,Barcelona,41.38617,2.184071,44,http://tour-pedia.org/api/getReviewsByPlaceId?placeId=129832,8,http://tour-pedia.org/api/getPlaceDetails?id=129832,,
131014,Parco Sushi Sashimi,Passeig de Gràcia 119,restaurant,Barcelona,41.39737968796,2.1583083065215,62,http://tour-pedia.org/api/getReviewsByPlaceId?placeId=131014,8,http://tour-pedia.org/api/getPlaceDetails?id=131014,4bafb930f964a520331b3ce3,Japanese Restaurant
132920,Institut Català de Retina,"Carrer de Ganduxer, 117, Barcelona, Spain",poi,Barcelona,41.401621,2.132057,10,http://tour-pedia.org/api/getReviewsByPlaceId?placeId=132920,7,http://tour-pedia.org/api/getPlaceDetails?id=132920,,
137580,IMO Instituto de Microcirugía Ocular,"Carrer Josep Maria Lladó, 3, Barcelona, Spain",poi,Barcelona,41.410752,2.124795,10,http://tour-pedia.org/api/getReviewsByPlaceId?placeId=137580,7,http://tour-pedia.org/api/getPlaceDetails?id=137580,,
130726,Asador Del Mar,"Carrer de Bori i Fontestà, 45, Barcelona, Spain",restaurant,Barcelona,41.392449,2.136669,10,http://tour-pedia.org/api/getReviewsByPlaceId?placeId=130726,7,http://tour-pedia.org/api/getPlaceDetails?id=130726,,
163588,chulapio bar a crepes,"Carrer Ample, 12, Barcelona, Spain",restaurant,Barcelona,41.379797,2.179591,10,http://tour-pedia.org/api/getReviewsByPlaceId?placeId=163588,7,http://tour-pedia.org/api/getPlaceDetails?id=163588,,
138687,100 Montaditos Heron City,"Centro Comercial Heron City, Avenida de Río de Janeiro, 42, Barcelona, Spain",restaurant,Barcelona,41.435705,2.180323,10,http://tour-pedia.org/api/getReviewsByPlaceId?placeId=138687,7,http://tour-pedia.org/api/getPlaceDetails?id=138687,,
129919,L'Antull,Europa 32,restaurant,Barcelona,41.387515032274,2.1312460466988,10,http://tour-pedia.org/api/getReviewsByPlaceId?placeId=129919,7,http://tour-pedia.org/api/getPlaceDetails?id=129919,4b5ee30af964a5206d9c29e3,Spanish Restaurant
130438,Bugui,"Avinguda Diagonal, 633",restaurant,Barcelona,41.387428,2.124106,10,http://tour-pedia.org/api/getReviewsByPlaceId?placeId=130438,7,http://tour-pedia.org/api/getPlaceDetails?id=130438,4b8b8a73f964a5204ea232e3,Diner
130713,El Rey del Bocata,Carrer Vilamarí 47,restaurant,Barcelona,41.3772841375,2.15153794,10,http://tour-pedia.org/api/getReviewsByPlaceId?placeId=130713,7,http://tour-pedia.org/api/getPlaceDetails?id=130713,4b9ff016f964a520034c37e3,Restaurant
133842,Farggi,"Potosí, 2",restaurant,Barcelona,41.439920970203,2.1985505306331,10,http://tour-pedia.org/api/getReviewsByPlaceId?placeId=133842,7,http://tour-pedia.org/api/getPlaceDetails?id=133842,4c47337a972c0f4733062321,Ice Cream Shop
135473,Lua Nova,"C/ Garcilaso, 29",restaurant,Barcelona,41.422505694562,2.1894622922913,10,http://tour-pedia.org/api/getReviewsByPlaceId?placeId=135473,7,http://tour-pedia.org/api/getPlaceDetails?id=135473,4ca8a890d971b1f7a39216e1,Paella Restaurant
139166,Subway,Plaza Sagrada Familia 17,restaurant,Barcelona,41.402587683017,2.1739737823999,10,http://tour-pedia.org/api/getReviewsByPlaceId?placeId=139166,7,http://tour-pedia.org/api/getPlaceDetails?id=139166,4d84a3e450913704f053835b,Fast Food Restaurant
139635,Café Tacuba,"Galileu, 91",restaurant,Barcelona,41.378197700042,2.1348706667213,10,http://tour-pedia.org/api/getReviewsByPlaceId?placeId=139635,7,http://tour-pedia.org/api/getPlaceDetails?id=139635,4d8f9d4ad00a6ea8926dd34f,Mexican Restaurant
154977,Granier Pans Artesans,Paral.lel 115,restaurant,Barcelona,41.375067406473,2.1614889403681,10,http://tour-pedia.org/api/getReviewsByPlaceId?placeId=154977,7,http://tour-pedia.org/api/getPlaceDetails?id=154977,4f61b4d1e4b0dd26f1bec38a,Bakery
155018,Restaurante Mandarina,,restaurant,Barcelona,41.421017863913,2.1744920597781,10,http://tour-pedia.org/api/getReviewsByPlaceId?placeId=155018,7,http://tour-pedia.org/api/getPlaceDetails?id=155018,4f63315de4b03c27088fdb92,Vegetarian / Vegan Restaurant
129541,Mix,Comerç 21,attraction,Barcelona,41.386408897255,2.1824973235331,10,http://tour-pedia.org/api/getReviewsByPlaceId?placeId=129541,7,http://tour-pedia.org/api/getPlaceDetails?id=129541,4adcda4ff964a520ba4021e3,Bar
129592,Pla de Palau,"Pla de Palau, 1",attraction,Barcelona,41.382840434718,2.1832940883028,10,http://tour-pedia.org/api/getReviewsByPlaceId?placeId=129592,7,http://tour-pedia.org/api/getPlaceDetails?id=129592,4adcda50f964a5205f4121e3,Plaza
130068,Palau Balaña Cinemes,,attraction,Barcelona,41.377814258912,2.1377811224373,10,http://tour-pedia.org/api/getReviewsByPlaceId?placeId=130068,7,http://tour-pedia.org/api/getPlaceDetails?id=130068,4b6df82df964a520e09f2ce3,Multiplex
151303,MNAC Stairs,Mirador del Palau Nacional,attraction,Barcelona,41.368912774832,2.1533524990082,10,http://tour-pedia.org/api/getReviewsByPlaceId?placeId=151303,7,http://tour-pedia.org/api/getPlaceDetails?id=151303,4ed3b9a00e61efa334ed4cf7,Scenic Lookout
130239,Pestana Arena Barcelona,"Consell de Cent, 51-53, Sants-Montjuïc, 08014 Barcelona",accommodation,Barcelona,41.376683779889,2.1459321677685,10,http://tour-pedia.org/api/getReviewsByPlaceId?placeId=130239,7,http://tour-pedia.org/api/getPlaceDetails?id=130239,,
132411,Barcelona Hotel Colonial,"Via Layetana, 3, Ciutat Vella, 08003 Barcelona",accommodation,Barcelona,41.382260666906,2.1807780861855,10,http://tour-pedia.org/api/getReviewsByPlaceId?placeId=132411,7,http://tour-pedia.org/api/getPlaceDetails?id=132411,,
133809,Clinica Dental Mirave,"Carrer de Tuset, 36, Barcelona, Spain",poi,Barcelona,41.396661,2.151013,11,http://tour-pedia.org/api/getReviewsByPlaceId?placeId=133809,7,http://tour-pedia.org/api/getPlaceDetails?id=133809,,
130719,Oficina DNI y Pasaporte,Trafalgar 4,poi,Barcelona,41.388803010579,2.1741993283034,11,http://tour-pedia.org/api/getReviewsByPlaceId?placeId=130719,7,http://tour-pedia.org/api/getPlaceDetails?id=130719,4ba0af85f964a5208b7737e3,Government Building
131547,CAP Manso,"Manso, 19",poi,Barcelona,41.3764236627,2.1598674126524,11,http://tour-pedia.org/api/getReviewsByPlaceId?placeId=131547,7,http://tour-pedia.org/api/getPlaceDetails?id=131547,4bcc01a23740b7131d706365,Hospital
132970,Can Punyetes,"Carrer de la Ciutat de Balaguer, 50, Barcelona, Spain",restaurant,Barcelona,41.403994,2.134752,11,http://tour-pedia.org/api/getReviewsByPlaceId?placeId=132970,7,http://tour-pedia.org/api/getPlaceDetails?id=132970,,
133605,MyKasa,"Carrer Espronceda, 367, Barcelona, Spain",restaurant,Barcelona,41.417728,2.18792,11,http://tour-pedia.org/api/getReviewsByPlaceId?placeId=133605,7,http://tour-pedia.org/api/getPlaceDetails?id=133605,,
133638,Bar Turó,"Carrer del Tenor Viñas, 1, Barcelona, Spain",restaurant,Barcelona,41.394884,2.141979,11,http://tour-pedia.org/api/getReviewsByPlaceId?placeId=133638,7,http://tour-pedia.org/api/getPlaceDetails?id=133638,,
144901,Restaurante Japones Yen,"Carrer Gran de Gràcia, 180, Barcelona, Spain",restaurant,Barcelona,41.402875,2.15251,11,http://tour-pedia.org/api/getReviewsByPlaceId?placeId=144901,7,http://tour-pedia.org/api/getPlaceDetails?id=144901,,
130039,Buenas Migas Focacceria,"C.C. Diagonal Mar Av Diagonal, 3",restaurant,Barcelona,41.409453966892,2.2162342071533,11,http://tour-pedia.org/api/getReviewsByPlaceId?placeId=130039,7,http://tour-pedia.org/api/getPlaceDetails?id=130039,4b6c6643f964a520e6362ce3,Italian Restaurant
130606,Casa Aliaga,Llacuna 154,restaurant,Barcelona,41.405919,2.192805,11,http://tour-pedia.org/api/getReviewsByPlaceId?placeId=130606,7,http://tour-pedia.org/api/getPlaceDetails?id=130606,4b9a11a8f964a520739d35e3,Spanish Restaurant
130647,NOTIFIXIS,Aribau 250,restaurant,Barcelona,41.39622393101,2.1491575241089,11,http://tour-pedia.org/api/getReviewsByPlaceId?placeId=130647,7,http://tour-pedia.org/api/getPlaceDetails?id=130647,4b9c3a9ff964a520075736e3,Mediterranean Restaurant
131558,Inout Hostel Barcelona,"Major del Rectoret, 2",restaurant,Barcelona,41.422339106658,2.0982783361178,11,http://tour-pedia.org/api/getReviewsByPlaceId?placeId=131558,7,http://tour-pedia.org/api/getPlaceDetails?id=131558,4bcc5d34aeaaeee1d3ee3d6d,Bed & Breakfast
136735,Nespresso Boutique,"Av. Diagonal 609-615, Pedralbes Centre Planta D",restaurant,Barcelona,41.387868941268,2.1288202079467,11,http://tour-pedia.org/api/getReviewsByPlaceId?placeId=136735,7,http://tour-pedia.org/api/getPlaceDetails?id=136735,4cfcc5aedccef04d41f5c19c,Gourmet Shop
140194,Buenas Migas,"Passeig de Sant Gervasi, 2",restaurant,Barcelona,41.406543442833,2.1338062638165,11,http://tour-pedia.org/api/getReviewsByPlaceId?placeId=140194,7,http://tour-pedia.org/api/getPlaceDetails?id=140194,4da0875f54dd8cfa1dbc5c72,Italian Restaurant
144473,Granier Pans Artesans,"Gran Via, 349",restaurant,Barcelona,41.373422597792,2.1470459705331,11,http://tour-pedia.org/api/getReviewsByPlaceId?placeId=144473,7,http://tour-pedia.org/api/getPlaceDetails?id=144473,4e25b59a14956d36077f29c1,Bakery
144625,Terra Mia,"Ramiro de Maetzu, 31",restaurant,Barcelona,41.416253,2.157586,11,http://tour-pedia.org/api/getReviewsByPlaceId?placeId=144625,7,http://tour-pedia.org/api/getPlaceDetails?id=144625,4e29e65ab0fbc2edac10c598,Italian Restaurant
132705,Dublin Sport Tavern (Dublins),"Joan Llongueras, 5",attraction,Barcelona,41.392798680295,2.1409698942981,11,http://tour-pedia.org/api/getReviewsByPlaceId?placeId=132705,7,http://tour-pedia.org/api/getPlaceDetails?id=132705,4c01084075fc95214ed74898,Pub
129993,Aparthotel Atenea Barcelona,"Joan Güell, 207 - 211, Les Corts, 08028 Barcelona",accommodation,Barcelona,41.386301648884,2.1294406056404,11,http://tour-pedia.org/api/getReviewsByPlaceId?placeId=129993,7,http://tour-pedia.org/api/getPlaceDetails?id=129993,,
131396,Granados 83,"Enrique Granados, 83, L'Eixample, 08008 Barcelona",accommodation,Barcelona,41.391877711122,2.1567743271589,11,http://tour-pedia.org/api/getReviewsByPlaceId?placeId=131396,7,http://tour-pedia.org/api/getPlaceDetails?id=131396,,
131425,Sunotel Junior,"Avenida Sarrià, 9, L'Eixample, 08029 Barcelona",accommodation,Barcelona,41.38985943707,2.1471921354532,11,http://tour-pedia.org/api/getReviewsByPlaceId?placeId=131425,7,http://tour-pedia.org/api/getPlaceDetails?id=131425,,
130465,La bota del racó,"Avinguda de la Mare de Déu de Montserrat, 232, Barcelona, Spain",restaurant,Barcelona,41.422219,2.174444,12,http://tour-pedia.org/api/getReviewsByPlaceId?placeId=130465,7,http://tour-pedia.org/api/getPlaceDetails?id=130465,,
165809,Once Upon a Time...Food & Drinks,"Carrer Mandri, 32, Barcelona, Spain",restaurant,Barcelona,41.403182,2.134161,12,http://tour-pedia.org/api/getReviewsByPlaceId?placeId=165809,7,http://tour-pedia.org/api/getPlaceDetails?id=165809,,
133913,La Llar de Foc,"Carrer de Ramón y Cajal, 13, Barcelona, Spain",restaurant,Barcelona,41.402211,2.157882,12,http://tour-pedia.org/api/getReviewsByPlaceId?placeId=133913,7,http://tour-pedia.org/api/getPlaceDetails?id=133913,,
139658,Nespresso Boutique,C.C. Las Arenas,restaurant,Barcelona,41.375900807627,2.1491802254786,12,http://tour-pedia.org/api/getReviewsByPlaceId?placeId=139658,7,http://tour-pedia.org/api/getPlaceDetails?id=139658,4d90be02ca75b60c25e82ea9,Gourmet Shop
152615,Disset 17 Graus,Calle Antic de Sant Joan 3,attraction,Barcelona,41.385048430927,2.1833180874603,12,http://tour-pedia.org/api/getReviewsByPlaceId?placeId=152615,7,http://tour-pedia.org/api/getPlaceDetails?id=152615,4f05f5210e61b14c28d08bdd,Wine Bar
132483,NH La Maquinista,"Carrer Sao Paulo, 33-37, Barcelona, Spain",accommodation,Barcelona,41.439401,2.200053,12,http://tour-pedia.org/api/getReviewsByPlaceId?placeId=132483,7,http://tour-pedia.org/api/getPlaceDetails?id=132483,,
129465,Zenit Barcelona,"Santaló, 8, Sarrià-St. Gervasi, 08021 Barcelona",accommodation,Barcelona,41.394920095556,2.1468240022659,12,http://tour-pedia.org/api/getReviewsByPlaceId?placeId=129465,7,http://tour-pedia.org/api/getPlaceDetails?id=129465,,
131419,Guillermo Tell,"Guillem Tell, 49, Sarrià-St. Gervasi, 08006 Barcelona",accommodation,Barcelona,41.401770975607,2.1476997435093,12,http://tour-pedia.org/api/getReviewsByPlaceId?placeId=131419,7,http://tour-pedia.org/api/getPlaceDetails?id=131419,,
131424,Zenit Borrell,"Comte Borrell, 208, L'Eixample, 08029 Barcelona",accommodation,Barcelona,41.385939419711,2.1514937281609,12,http://tour-pedia.org/api/getReviewsByPlaceId?placeId=131424,7,http://tour-pedia.org/api/getPlaceDetails?id=131424,,
129664,Neichel,"Carrer de Beltrán i Rózpide, 1, Barcelona, Spain",restaurant,Barcelona,41.389439,2.121648,13,http://tour-pedia.org/api/getReviewsByPlaceId?placeId=129664,7,http://tour-pedia.org/api/getPlaceDetails?id=129664,,
135278,Pizza Bulls,"Gran Via de les Corts Catalanes, 972, Barcelona, Spain",restaurant,Barcelona,41.410207,2.196807,13,http://tour-pedia.org/api/getReviewsByPlaceId?placeId=135278,7,http://tour-pedia.org/api/getPlaceDetails?id=135278,,
129841,cafe del centre,"Girona, 69",restaurant,Barcelona,41.394747331288,2.1712097371501,13,http://tour-pedia.org/api/getReviewsByPlaceId?placeId=129841,7,http://tour-pedia.org/api/getPlaceDetails?id=129841,4b4f872cf964a520160a27e3,Café
130865,Wokimarket,"Passeig Marítim de la Barceloneta, 1-9",restaurant,Barcelona,41.379072824078,2.192160246868,13,http://tour-pedia.org/api/getReviewsByPlaceId?placeId=130865,7,http://tour-pedia.org/api/getPlaceDetails?id=130865,4ba76e2bf964a5204b9339e3,Asian Restaurant
132767,Viena,Av. Diagonal 3,restaurant,Barcelona,41.409051633253,2.2164916992188,13,http://tour-pedia.org/api/getReviewsByPlaceId?placeId=132767,7,http://tour-pedia.org/api/getPlaceDetails?id=132767,4c03af5bf423a5936384d016,Hot Dog Joint
146071,Genis Café,"Avenida Litoral Mar, 12-14",restaurant,Barcelona,41.386440194089,2.1950648090451,13,http://tour-pedia.org/api/getReviewsByPlaceId?placeId=146071,7,http://tour-pedia.org/api/getPlaceDetails?id=146071,4e4d162045dd4c13eda308d2,Restaurant
167709,Tapa Tapa Xiringuito,Barcelona Beach,restaurant,Barcelona,41.376906780811,2.1907104362588,13,http://tour-pedia.org/api/getReviewsByPlaceId?placeId=167709,7,http://tour-pedia.org/api/getPlaceDetails?id=167709,51ebdd11498ed33336c09ad3,Tapas Restaurant
129741,Reial Club de Tennis Barcelona,Bosch i Gimpera 5,attraction,Barcelona,41.39278545338,2.1176515363123,13,http://tour-pedia.org/api/getReviewsByPlaceId?placeId=129741,7,http://tour-pedia.org/api/getPlaceDetails?id=129741,,
132011,GBB Hotel 4 Barcelona,Calle Doctor Trueta 164,attraction,Barcelona,41.396191737857,2.2006237506866,13,http://tour-pedia.org/api/getReviewsByPlaceId?placeId=132011,7,http://tour-pedia.org/api/getPlaceDetails?id=132011,4bdf350f7ea362b5c66643c4,Hotel
137621,Ornina,"Avda. Diagonal, 593 Interior",attraction,Barcelona,41.388529512705,2.131097424348,13,http://tour-pedia.org/api/getReviewsByPlaceId?placeId=137621,7,http://tour-pedia.org/api/getPlaceDetails?id=137621,4d3b50c9039eb60c4121f49c,Mediterranean Restaurant
142710,Derby,"Loreto, 21-25, Les Corts, 08029 Barcelona",accommodation,Barcelona,41.38980611193,2.1420322358608,13,http://tour-pedia.org/api/getReviewsByPlaceId?placeId=142710,7,http://tour-pedia.org/api/getPlaceDetails?id=142710,,
142677,Renaissance Barcelona Hotel,"Pau Clarís, 122, L'Eixample, 08009 Barcelona",accommodation,Barcelona,41.392548778394,2.1674904227257,13,http://tour-pedia.org/api/getReviewsByPlaceId?placeId=142677,7,http://tour-pedia.org/api/getPlaceDetails?id=142677,,
129436,Onix Fira,"Llançà, 30, L'Eixample, 08015 Barcelona",accommodation,Barcelona,41.37705813661,2.1497449278831,13,http://tour-pedia.org/api/getReviewsByPlaceId?placeId=129436,7,http://tour-pedia.org/api/getPlaceDetails?id=129436,,
131414,Hotel Azul Barcelona,"Gran Via de Les Corts Catalanes, 327, Sants-Montjuïc, 08014 Barcelona",accommodation,Barcelona,41.372995445934,2.1460273861885,13,http://tour-pedia.org/api/getReviewsByPlaceId?placeId=131414,7,http://tour-pedia.org/api/getPlaceDetails?id=131414,,
133595,Aparthotel Mariano Cubi Barcelona,"Mariano Cubi, 62-64, Sarrià-St. Gervasi, 08006 Barcelona",accommodation,Barcelona,41.398127322844,2.1494391560555,13,http://tour-pedia.org/api/getReviewsByPlaceId?placeId=133595,7,http://tour-pedia.org/api/getPlaceDetails?id=133595,,
130354,Bisi Bisau,"Carrer del Lluçanès, 2, Barcelona, Spain",restaurant,Barcelona,41.407186,2.133546,14,http://tour-pedia.org/api/getReviewsByPlaceId?placeId=130354,7,http://tour-pedia.org/api/getPlaceDetails?id=130354,,
131353,Restaurante la Tagliatella,"Gran Via de les Corts Catalanes, 149-151, Barcelona, Spain",restaurant,Barcelona,41.366216,2.137008,14,http://tour-pedia.org/api/getReviewsByPlaceId?placeId=131353,7,http://tour-pedia.org/api/getPlaceDetails?id=131353,,
135579,Tomy Tapas,"Avinguda de la Mare de Déu de Montserrat, 173, Barcelona, Spain",restaurant,Barcelona,41.41912,2.172264,14,http://tour-pedia.org/api/getReviewsByPlaceId?placeId=135579,7,http://tour-pedia.org/api/getPlaceDetails?id=135579,,
159019,Bread and Circuses,"Carrer Blasco de Garay, 59, Barcelona, Spain",restaurant,Barcelona,41.371994,2.162301,14,http://tour-pedia.org/api/getReviewsByPlaceId?placeId=159019,7,http://tour-pedia.org/api/getPlaceDetails?id=159019,,
129684,Trapio Restaurante,Carrer De L'Esperança 25,restaurant,Barcelona,41.404707628716,2.1276313072015,14,http://tour-pedia.org/api/getReviewsByPlaceId?placeId=129684,7,http://tour-pedia.org/api/getPlaceDetails?id=129684,4adcda55f964a5202f4321e3,Mediterranean Restaurant
129863,Green's,,restaurant,Barcelona,41.390680074692,2.1312135457993,14,http://tour-pedia.org/api/getReviewsByPlaceId?placeId=129863,7,http://tour-pedia.org/api/getPlaceDetails?id=129863,4b56130df964a5200bff27e3,Burger Joint
130238,Cantina Mexicana Chihuahua,Passeig Maragall 107,restaurant,Barcelona,41.418782951764,2.1805678672337,14,http://tour-pedia.org/api/getReviewsByPlaceId?placeId=130238,7,http://tour-pedia.org/api/getPlaceDetails?id=130238,4b7a8ec9f964a52016312fe3,Mexican Restaurant
131217,Buenas Migas,"CC  L'Illa Av Diagonal, 557",restaurant,Barcelona,41.389092758222,2.1356177330017,14,http://tour-pedia.org/api/getReviewsByPlaceId?placeId=131217,7,http://tour-pedia.org/api/getPlaceDetails?id=131217,4bbb3977cf2fc9b6d04da202,Italian Restaurant
162767,Papas & The Mamas,Rambla de Poblenou 129,restaurant,Barcelona,41.404504755764,2.1968988603733,14,http://tour-pedia.org/api/getReviewsByPlaceId?placeId=162767,7,http://tour-pedia.org/api/getPlaceDetails?id=162767,50ba196be4b0ecc0af858ca4,Café
138884,Palau Reial de Pedralbes,"Av. Diagonal, 686",attraction,Barcelona,41.386549170992,2.1181511878967,14,http://tour-pedia.org/api/getReviewsByPlaceId?placeId=138884,7,http://tour-pedia.org/api/getPlaceDetails?id=138884,4d7b5ec5136bf04d8a8a4a8d,Museum
129476,Vincci Maritimo Hotel,"Calle Llull, 340, Barcelona, Spain",accommodation,Barcelona,41.408158,2.212018,14,http://tour-pedia.org/api/getReviewsByPlaceId?placeId=129476,7,http://tour-pedia.org/api/getPlaceDetails?id=129476,,
138300,The Mirror Barcelona,"Corcega, 255, L'Eixample, 08036 Barcelona",accommodation,Barcelona,41.393046792356,2.1546714752913,14,http://tour-pedia.org/api/getReviewsByPlaceId?placeId=138300,7,http://tour-pedia.org/api/getPlaceDetails?id=138300,,
129440,Aparthotel Silver,"Bretón de los Herreros, 26, Gràcia, 08012 Barcelona",accommodation,Barcelona,41.402090866895,2.1511571109295,14,http://tour-pedia.org/api/getReviewsByPlaceId?placeId=129440,7,http://tour-pedia.org/api/getPlaceDetails?id=129440,,
129809,H10 Universitat,"Ronda Universitat, 21, L'Eixample, 08007 Barcelona",accommodation,Barcelona,41.386835933232,2.1667199581861,14,http://tour-pedia.org/api/getReviewsByPlaceId?placeId=129809,7,http://tour-pedia.org/api/getPlaceDetails?id=129809,,
133829,Arc La Rambla,"La Rambla, 19-21, Ciutat Vella, 08002 Barcelona",accommodation,Barcelona,41.378213395918,2.1756000816822,14,http://tour-pedia.org/api/getReviewsByPlaceId?placeId=133829,7,http://tour-pedia.org/api/getPlaceDetails?id=133829,,
139289,Medium City,"Nicaragua, 47, Sants-Montjuïc, 08029 Barcelona",accommodation,Barcelona,41.383087800689,2.1412074565887,14,http://tour-pedia.org/api/getReviewsByPlaceId?placeId=139289,7,http://tour-pedia.org/api/getPlaceDetails?id=139289,,
129602,Farmacia del Born,"Avinguda del Marquès de l'Argentera, 5, Barcelona, Spain",poi,Barcelona,41.383905,2.18411,15,http://tour-pedia.org/api/getReviewsByPlaceId?placeId=129602,7,http://tour-pedia.org/api/getPlaceDetails?id=129602,,
129649,Casa Pepe,"Paseo Bonanova, 4, Barcelona, Spain",restaurant,Barcelona,41.4067,2.134074,15,http://tour-pedia.org/api/getReviewsByPlaceId?placeId=129649,7,http://tour-pedia.org/api/getPlaceDetails?id=129649,,
135747,Brutus Barcelona,"Passatge Posoltega, Barcelona, Spain",restaurant,Barcelona,41.438327,2.196444,15,http://tour-pedia.org/api/getReviewsByPlaceId?placeId=135747,7,http://tour-pedia.org/api/getPlaceDetails?id=135747,,
129857,Cockteleria Copa Café,"Carrer de la Santa Creu, 5, Barcelona, Spain",restaurant,Barcelona,41.405279,2.156578,15,http://tour-pedia.org/api/getReviewsByPlaceId?placeId=129857,7,http://tour-pedia.org/api/getPlaceDetails?id=129857,,
130008,Caffe San Marco,Mayor de Sarria,restaurant,Barcelona,41.39795281803,2.1227274246715,15,http://tour-pedia.org/api/getReviewsByPlaceId?placeId=130008,7,http://tour-pedia.org/api/getPlaceDetails?id=130008,4b693483f964a520a69b2be3,Café
133830,El Ramblero,"Pont del Treball, 13",restaurant,Barcelona,41.422106,2.1968609,15,http://tour-pedia.org/api/getReviewsByPlaceId?placeId=133830,7,http://tour-pedia.org/api/getPlaceDetails?id=133830,4c461a36cd5ca59360cdff86,Diner
145819,Boca&Boca,Fabra i Puig 211,restaurant,Barcelona,41.430192675422,2.1759029562012,15,http://tour-pedia.org/api/getReviewsByPlaceId?placeId=145819,7,http://tour-pedia.org/api/getPlaceDetails?id=145819,4e466d7262845e1d3c90b645,Seafood Restaurant
148431,Bimba's,C/Flos i Calcat,restaurant,Barcelona,41.390450793325,2.1309535967351,15,http://tour-pedia.org/api/getReviewsByPlaceId?placeId=148431,7,http://tour-pedia.org/api/getPlaceDetails?id=148431,4e839570722ea2c7b90a1cbe,Restaurant
154333,El Abrevadero,"Vilà i Vilà, 77",restaurant,Barcelona,41.374279656115,2.1685802127599,15,http://tour-pedia.org/api/getReviewsByPlaceId?placeId=154333,7,http://tour-pedia.org/api/getPlaceDetails?id=154333,4f4a0adde4b0c132f27c634c,Spanish Restaurant
169124,BierCab,"Muntaner, 55",attraction,Barcelona,41.386162794606,2.1599721908569,15,http://tour-pedia.org/api/getReviewsByPlaceId?placeId=169124,7,http://tour-pedia.org/api/getPlaceDetails?id=169124,,
131557,Pere IV,"Carrer de Pallars, 128-130, Barcelona, Spain",accommodation,Barcelona,41.396929,2.192261,15,http://tour-pedia.org/api/getReviewsByPlaceId?placeId=131557,7,http://tour-pedia.org/api/getPlaceDetails?id=131557,,
131439,The Praktik,"Diputació, 325, L'Eixample, 08009 Barcelona",accommodation,Barcelona,41.393684647091,2.1713239699602,15,http://tour-pedia.org/api/getReviewsByPlaceId?placeId=131439,7,http://tour-pedia.org/api/getPlaceDetails?id=131439,,
131561,America Barcelona,"Provenza, 195, L'Eixample, 08008 Barcelona",accommodation,Barcelona,41.391651337541,2.1573194861412,15,http://tour-pedia.org/api/getReviewsByPlaceId?placeId=131561,7,http://tour-pedia.org/api/getPlaceDetails?id=131561,,
141508,Hostal Levante,"Baixada de Sant Miquel, 2, Ciutat Vella, 08002 Barcelona",accommodation,Barcelona,41.381281576459,2.1764684468508,15,http://tour-pedia.org/api/getReviewsByPlaceId?placeId=141508,7,http://tour-pedia.org/api/getPlaceDetails?id=141508,,
129682,Tramonti 1980,"Avinguda Diagonal, 501, 08029 Barcelona, Spain",restaurant,Barcelona,41.391807,2.142368,16,http://tour-pedia.org/api/getReviewsByPlaceId?placeId=129682,7,http://tour-pedia.org/api/getPlaceDetails?id=129682,,
130349,Shanghai Restaurant,"Carrer del Bisbe Sivilla, 48, Barcelona, Spain",restaurant,Barcelona,41.403827,2.133942,16,http://tour-pedia.org/api/getReviewsByPlaceId?placeId=130349,7,http://tour-pedia.org/api/getPlaceDetails?id=130349,,
131214,Els Tres Porquets,"Rambla del Poblenou, 165, Barcelona, Spain",restaurant,Barcelona,41.407214,2.192994,16,http://tour-pedia.org/api/getReviewsByPlaceId?placeId=131214,7,http://tour-pedia.org/api/getPlaceDetails?id=131214,,
136699,Sal Café,"Passeig Marítim de la Barceloneta, s/n, Barcelona, Spain",restaurant,Barcelona,41.381059,2.193717,16,http://tour-pedia.org/api/getReviewsByPlaceId?placeId=136699,7,http://tour-pedia.org/api/getPlaceDetails?id=136699,,
136853,Restaurante Casa Fausto,"Carrer Funoses Llussà, 2, Barcelona, Spain",restaurant,Barcelona,41.419897,2.148699,16,http://tour-pedia.org/api/getReviewsByPlaceId?placeId=136853,7,http://tour-pedia.org/api/getPlaceDetails?id=136853,,
138011,La Cueva del tío Jesús,"Carrer d'Escòcia, 5, Barcelona, Spain",restaurant,Barcelona,41.428565,2.183752,16,http://tour-pedia.org/api/getReviewsByPlaceId?placeId=138011,7,http://tour-pedia.org/api/getPlaceDetails?id=138011,,
130766,Ebano,Av. Paral·lel 124 bis,restaurant,Barcelona,41.375137865078,2.1620321273804,16,http://tour-pedia.org/api/getReviewsByPlaceId?placeId=130766,7,http://tour-pedia.org/api/getPlaceDetails?id=130766,4ba38351f964a520504338e3,Café
132162,Farggi,Av. Diagonal 208,restaurant,Barcelona,41.405076442983,2.1908283233643,16,http://tour-pedia.org/api/getReviewsByPlaceId?placeId=132162,7,http://tour-pedia.org/api/getPlaceDetails?id=132162,4be80af3d837c9b60acda406,Ice Cream Shop
133204,Soco,"Bilbao, 31",restaurant,Barcelona,41.401600015464,2.2051049927725,16,http://tour-pedia.org/api/getReviewsByPlaceId?placeId=133204,7,http://tour-pedia.org/api/getPlaceDetails?id=133204,4c2207c411de20a12a2684ce,Mediterranean Restaurant
137279,L'Obrador del Molí (L'Obrador de Vallcarca),"Av. de la República Argentina, 177",restaurant,Barcelona,41.411497783302,2.1423125267029,16,http://tour-pedia.org/api/getReviewsByPlaceId?placeId=137279,7,http://tour-pedia.org/api/getPlaceDetails?id=137279,4d27503677a2a1cd9a9357b7,Bakery
145092,Los Bellota,"Marina, 298",restaurant,Barcelona,41.4052386,2.17347325,16,http://tour-pedia.org/api/getReviewsByPlaceId?placeId=145092,7,http://tour-pedia.org/api/getPlaceDetails?id=145092,4e34819445dd1c42bf152002,Restaurant
161498,Carrot Cafe,"Tanger, 22",restaurant,Barcelona,41.398957119308,2.1883677944858,16,http://tour-pedia.org/api/getReviewsByPlaceId?placeId=161498,7,http://tour-pedia.org/api/getPlaceDetails?id=161498,506ee46ae4b06a509dceb3d0,Breakfast Spot
169422,Travel&Cake,Rosselló,restaurant,Barcelona,41.391852011752,2.1551422881171,16,http://tour-pedia.org/api/getReviewsByPlaceId?placeId=169422,7,http://tour-pedia.org/api/getPlaceDetails?id=169422,524f0998498eb522a2ce8111,Cupcake Shop
129424,Ambos Mundos,"Plaça Reial, 10, Barcelona, Spain",accommodation,Barcelona,41.380427,2.175383,16,http://tour-pedia.org/api/getReviewsByPlaceId?placeId=129424,7,http://tour-pedia.org/api/getPlaceDetails?id=129424,,
131265,Apsis Porta Marina,"Sancho de Ávila, 32-34, Sant Martí, 08018 Barcelona",accommodation,Barcelona,41.397690714633,2.1887938678265,16,http://tour-pedia.org/api/getReviewsByPlaceId?placeId=131265,7,http://tour-pedia.org/api/getPlaceDetails?id=131265,,
152186,Andante Hotel,"Avenida de les Drassanes, 23-35, Ciutat Vella, 08001 Barcelona",accommodation,Barcelona,41.376667678477,2.172594666481,16,http://tour-pedia.org/api/getReviewsByPlaceId?placeId=152186,7,http://tour-pedia.org/api/getPlaceDetails?id=152186,,
130459,Centro Internacional de Medicina Avanzada (CIMA),"Pg. Manuel Girona, 33",poi,Barcelona,41.391060919096,2.123657347513,17,http://tour-pedia.org/api/getReviewsByPlaceId?placeId=130459,7,http://tour-pedia.org/api/getPlaceDetails?id=130459,4b8d293cf964a520f5ea32e3,Hospital
130085,Garlana Restaurant,"Carrer del Capità Arenas, 27, Barcelona, Spain",restaurant,Barcelona,41.391113,2.125615,17,http://tour-pedia.org/api/getReviewsByPlaceId?placeId=130085,7,http://tour-pedia.org/api/getPlaceDetails?id=130085,,
133208,The New Orleans Coffee & Tea Company,"Carrer Pere d'Artés, 10, Barcelona, Spain",restaurant,Barcelona,41.430507,2.172538,17,http://tour-pedia.org/api/getReviewsByPlaceId?placeId=133208,7,http://tour-pedia.org/api/getPlaceDetails?id=133208,,
129779,Starbucks Coffee,Plaça Francesc Macia 7,restaurant,Barcelona,41.392256280426,2.1436313734921,17,http://tour-pedia.org/api/getReviewsByPlaceId?placeId=129779,7,http://tour-pedia.org/api/getPlaceDetails?id=129779,4b179584f964a52085c623e3,Coffee Shop
130532,Bracafé,"Badal, 207",restaurant,Barcelona,41.375373,2.130586,17,http://tour-pedia.org/api/getReviewsByPlaceId?placeId=130532,7,http://tour-pedia.org/api/getPlaceDetails?id=130532,4b92fd2cf964a520e42c34e3,Café
131338,Restaurante Carmesí,"Carrer de Blai, 28, Barcelona, Spain",restaurant,Barcelona,41.373852,2.164352,17,http://tour-pedia.org/api/getReviewsByPlaceId?placeId=131338,7,http://tour-pedia.org/api/getPlaceDetails?id=131338,,
129916,Plaça del Sol,Plaça del Sol,attraction,Barcelona,41.401652048532,2.1567492544463,17,http://tour-pedia.org/api/getReviewsByPlaceId?placeId=129916,7,http://tour-pedia.org/api/getPlaceDetails?id=129916,4b5ea5c0f964a520d79429e3,Plaza
149294,Ale&Hop,Basses de Sant Pere 10,attraction,Barcelona,41.388491659653,2.179929532971,17,http://tour-pedia.org/api/getReviewsByPlaceId?placeId=149294,7,http://tour-pedia.org/api/getPlaceDetails?id=149294,4e989a576c252a15c112b710,Bar
129502,HelloBCN Hostel Barcelona,"Lafont, 8-10, Sants-Montjuïc, 08004 Barcelona",accommodation,Barcelona,41.373595254727,2.1692083775997,17,http://tour-pedia.org/api/getReviewsByPlaceId?placeId=129502,7,http://tour-pedia.org/api/getPlaceDetails?id=129502,,
138376,Gallery Hotel,"Rosselló, 249, L'Eixample, 08008 Barcelona",accommodation,Barcelona,41.394968386225,2.1593847870827,17,http://tour-pedia.org/api/getReviewsByPlaceId?placeId=138376,7,http://tour-pedia.org/api/getPlaceDetails?id=138376,,
131196,Rambla del Raval-Aurora,Spain,poi,Barcelona,41.379348,2.168258,18,http://tour-pedia.org/api/getReviewsByPlaceId?placeId=131196,7,http://tour-pedia.org/api/getPlaceDetails?id=131196,,
132933,Zen Sushi,"Carrer de Villarroel, 220, Barcelona, Spain",restaurant,Barcelona,41.392276,2.147577,18,http://tour-pedia.org/api/getReviewsByPlaceId?placeId=132933,7,http://tour-pedia.org/api/getPlaceDetails?id=132933,,
133434,Rosti Restaurant,"Carrer de Ramon Trias Fargas, 2, Barcelona, Spain",restaurant,Barcelona,41.386003,2.196529,18,http://tour-pedia.org/api/getReviewsByPlaceId?placeId=133434,7,http://tour-pedia.org/api/getPlaceDetails?id=133434,,
130108,Frankfurts de Cine,Carrer de Santa Fe de Nou Mexic s/n,restaurant,Barcelona,41.393729,2.135889,18,http://tour-pedia.org/api/getReviewsByPlaceId?placeId=130108,7,http://tour-pedia.org/api/getPlaceDetails?id=130108,4b71638cf964a5203b442de3,American Restaurant
129791,Maumau,"C/ Fontrodona, 35",attraction,Barcelona,41.372381622994,2.1666945353048,18,http://tour-pedia.org/api/getReviewsByPlaceId?placeId=129791,7,http://tour-pedia.org/api/getPlaceDetails?id=129791,4b1e2691f964a520a01724e3,Cocktail Bar
130150,AC Hotel Barcelona Forum by Marriott,"Paseo Taulat, 278",attraction,Barcelona,41.410644859862,2.2184228897095,18,http://tour-pedia.org/api/getReviewsByPlaceId?placeId=130150,7,http://tour-pedia.org/api/getPlaceDetails?id=130150,4b7594a7f964a520d3152ee3,Hotel
143093,Ultramarinos Hendrick's Bar,"Carrer de Sant Pau, 126",attraction,Barcelona,41.375367476247,2.167911529541,18,http://tour-pedia.org/api/getReviewsByPlaceId?placeId=143093,7,http://tour-pedia.org/api/getPlaceDetails?id=143093,4dfd46afaeb7594e8623397a,Cocktail Bar
129434,Hotel España Ramblas,"Sant Pau, 9-11, Ciutat Vella, 08001 Barcelona",accommodation,Barcelona,41.379983479038,2.1728427708149,18,http://tour-pedia.org/api/getReviewsByPlaceId?placeId=129434,7,http://tour-pedia.org/api/getPlaceDetails?id=129434,,
129773,Hotel Soho,"Gran Via De Les Corts Catalanes, 543-545, L'Eixample, 08011 Barcelona",accommodation,Barcelona,41.383423883673,2.1598682552576,18,http://tour-pedia.org/api/getReviewsByPlaceId?placeId=129773,7,http://tour-pedia.org/api/getPlaceDetails?id=129773,,
131266,Confortel Auditori,"Sicilia, 166-170, L'Eixample, 08013 Barcelona",accommodation,Barcelona,41.395743044126,2.1813574433327,18,http://tour-pedia.org/api/getReviewsByPlaceId?placeId=131266,7,http://tour-pedia.org/api/getPlaceDetails?id=131266,,
130570,Txalaparta Restaurant,"Carrer de Sants, 146, Barcelona, Spain",restaurant,Barcelona,41.375523,2.133665,19,http://tour-pedia.org/api/getReviewsByPlaceId?placeId=130570,7,http://tour-pedia.org/api/getPlaceDetails?id=130570,,
134704,Restaurante la Tagliatella,"Carrer del Doctor Ferran, 25-27, Barcelona, Spain",restaurant,Barcelona,41.389692,2.124316,19,http://tour-pedia.org/api/getReviewsByPlaceId?placeId=134704,7,http://tour-pedia.org/api/getPlaceDetails?id=134704,,
131502,Seoul,Avinguda Gaudí 70,restaurant,Barcelona,41.41052,2.174445,19,http://tour-pedia.org/api/getReviewsByPlaceId?placeId=131502,7,http://tour-pedia.org/api/getPlaceDetails?id=131502,4bca2e91cc8cd13a7d2abdcf,Korean Restaurant
132709,Hu Nan,,restaurant,Barcelona,41.395167933333,2.1243066,19,http://tour-pedia.org/api/getReviewsByPlaceId?placeId=132709,7,http://tour-pedia.org/api/getPlaceDetails?id=132709,4c011057de3376b00331f9a4,Asian Restaurant
136311,Be Sushi,"Tànger, 148",restaurant,Barcelona,41.404678636043,2.1954777041469,19,http://tour-pedia.org/api/getReviewsByPlaceId?placeId=136311,7,http://tour-pedia.org/api/getPlaceDetails?id=136311,4cde8cc7aba88cfaa27842d7,Sushi Restaurant
133409,Casa Bella Gracia,"Sant Agustí, 4, Gràcia, 08012 Barcelona",accommodation,Barcelona,41.398446226066,2.1605663001537,19,http://tour-pedia.org/api/getReviewsByPlaceId?placeId=133409,7,http://tour-pedia.org/api/getPlaceDetails?id=133409,,
154230,Generator Hotel Barcelona,"Carrer de Còrcega 373 , Gràcia, 08037 Barcelona",accommodation,Barcelona,41.399157465156,2.1625283360481,19,http://tour-pedia.org/api/getReviewsByPlaceId?placeId=154230,7,http://tour-pedia.org/api/getPlaceDetails?id=154230,,
134559,Jefatura Provincial de Tráfico de Barcelona,"Gran Via de les Corts Catalanes, 184, Barcelona, Spain",poi,Barcelona,41.367474,2.1395,20,http://tour-pedia.org/api/getReviewsByPlaceId?placeId=134559,7,http://tour-pedia.org/api/getPlaceDetails?id=134559,,
156129,Abrassame,,restaurant,Barcelona,41.376374715565,2.1487677548224,20,http://tour-pedia.org/api/getReviewsByPlaceId?placeId=156129,7,http://tour-pedia.org/api/getPlaceDetails?id=156129,4f88adfee4b0e6f347d9a8ea,Restaurant
156759,Molika Cafe,"Casp, 57",restaurant,Barcelona,41.392986230369,2.1755574264587,20,http://tour-pedia.org/api/getReviewsByPlaceId?placeId=156759,7,http://tour-pedia.org/api/getPlaceDetails?id=156759,4fa39668e4b0f902060040dd,Breakfast Spot
129824,Bona Vida,Casp 22,attraction,Barcelona,41.389340466551,2.1707106915129,20,http://tour-pedia.org/api/getReviewsByPlaceId?placeId=129824,7,http://tour-pedia.org/api/getPlaceDetails?id=129824,4b423b22f964a52092cf25e3,Pub
130146,Bharma,Pere IV 93,attraction,Barcelona,41.398673057556,2.1943366527557,20,http://tour-pedia.org/api/getReviewsByPlaceId?placeId=130146,7,http://tour-pedia.org/api/getPlaceDetails?id=130146,4b755a79f964a520e2072ee3,Pub
130159,ROYAL Ramblas Hotel,"Las Ramblas, 117, Barcelona, Spain",accommodation,Barcelona,41.384214,2.170593,20,http://tour-pedia.org/api/getReviewsByPlaceId?placeId=130159,7,http://tour-pedia.org/api/getPlaceDetails?id=130159,,
129435,Hotel Principal,"Junta de Comercio, 8,10,12, Ciutat Vella, 08001 Barcelona",accommodation,Barcelona,41.380109264805,2.1711422502995,20,http://tour-pedia.org/api/getReviewsByPlaceId?placeId=129435,7,http://tour-pedia.org/api/getPlaceDetails?id=129435,,
130044,Hotel Barcelona Universal,"Avinguda Paral.lel, 76-78, 08001 Barcelona",accommodation,Barcelona,41.375154127888,2.168350070715,20,http://tour-pedia.org/api/getReviewsByPlaceId?placeId=130044,7,http://tour-pedia.org/api/getPlaceDetails?id=130044,,
129447,Silken Gran Hotel Havana,"Gran Vía de Les Corts Catalanes, 647, L'Eixample, 08010 Barcelona",accommodation,Barcelona,41.392666491129,2.1719951927662,20,http://tour-pedia.org/api/getReviewsByPlaceId?placeId=129447,7,http://tour-pedia.org/api/getPlaceDetails?id=129447,,
130486,Griego Leo's Restaurant,"Carrer dels Escultors Claperós, 8, Barcelona, Spain",restaurant,Barcelona,41.408093,2.189532,21,http://tour-pedia.org/api/getReviewsByPlaceId?placeId=130486,7,http://tour-pedia.org/api/getPlaceDetails?id=130486,,
132329,Pulpería A Gudiña,"Carrer d'Entença, 2, Barcelona, Spain",restaurant,Barcelona,41.375488,2.156268,21,http://tour-pedia.org/api/getReviewsByPlaceId?placeId=132329,7,http://tour-pedia.org/api/getPlaceDetails?id=132329,,
142673,Market,"Calle Comte Borrell, 68, Barcelona, Spain",restaurant,Barcelona,41.379118,2.160486,21,http://tour-pedia.org/api/getReviewsByPlaceId?placeId=142673,7,http://tour-pedia.org/api/getPlaceDetails?id=142673,,
160921,TACOS TACOS,"C/ Tapioles, 9, Barcelona, Spain",restaurant,Barcelona,41.37443,2.16502,21,http://tour-pedia.org/api/getReviewsByPlaceId?placeId=160921,7,http://tour-pedia.org/api/getPlaceDetails?id=160921,,
139780,Andele Comidas y Bebidas de México,"Gran Via de les Corts Catalanes, 373",restaurant,Barcelona,41.375965416264,2.1492233912312,21,http://tour-pedia.org/api/getReviewsByPlaceId?placeId=139780,7,http://tour-pedia.org/api/getPlaceDetails?id=139780,4d94d65f1646a35d23f43fa3,Mexican Restaurant
166508,Gaudí Bakery,"Sardenya, 298",restaurant,Barcelona,41.402221502236,2.1751879045293,21,http://tour-pedia.org/api/getReviewsByPlaceId?placeId=166508,7,http://tour-pedia.org/api/getPlaceDetails?id=166508,51a8f9db498e38cf422634e7,Cupcake Shop
151585,Muntanya de Tibidabo,Serra de Collserola,attraction,Barcelona,41.422396,2.119234,21,http://tour-pedia.org/api/getReviewsByPlaceId?placeId=151585,7,http://tour-pedia.org/api/getPlaceDetails?id=151585,4eddf531754a23a1928fe0fa,Mountain
129858,Hotel SB Icaria Barcelona,"Avinguda Icaria, 195, Sant Martí, 08005 Barcelona",accommodation,Barcelona,41.393629312937,2.199435532093,21,http://tour-pedia.org/api/getReviewsByPlaceId?placeId=129858,7,http://tour-pedia.org/api/getPlaceDetails?id=129858,,
130094,U232 Hotel,"Comte d'Urgell, 232, L'Eixample, 08036 Barcelona",accommodation,Barcelona,41.389595829352,2.1489174664021,21,http://tour-pedia.org/api/getReviewsByPlaceId?placeId=130094,7,http://tour-pedia.org/api/getPlaceDetails?id=130094,,
129675,Can Travi Nou,"Calle Jorge Manrique, s/n, Barcelona, Spain",restaurant,Barcelona,41.431055,2.152108,22,http://tour-pedia.org/api/getReviewsByPlaceId?placeId=129675,7,http://tour-pedia.org/api/getPlaceDetails?id=129675,,
143574,The RoomService,"Passeig de la Bonanova, 104, Barcelona, Spain",restaurant,Barcelona,41.400645,2.122497,22,http://tour-pedia.org/api/getReviewsByPlaceId?placeId=143574,7,http://tour-pedia.org/api/getPlaceDetails?id=143574,,
162241,"Biofusió Papaya Cafè, Lounge & Bar","Rambla del Poblenou, 117, Barcelona, Spain",restaurant,Barcelona,41.403543,2.19779,22,http://tour-pedia.org/api/getReviewsByPlaceId?placeId=162241,7,http://tour-pedia.org/api/getPlaceDetails?id=162241,,
130334,Teppan-Ya,"Lepant, 347",restaurant,Barcelona,41.408102115985,2.1714735031128,22,http://tour-pedia.org/api/getReviewsByPlaceId?placeId=130334,7,http://tour-pedia.org/api/getPlaceDetails?id=130334,4b814180f964a520639c30e3,Japanese Restaurant
131498,Louise Se Va,Plaça Eivissa 11,restaurant,Barcelona,41.430786,2.160774,22,http://tour-pedia.org/api/getReviewsByPlaceId?placeId=131498,7,http://tour-pedia.org/api/getPlaceDetails?id=131498,,
141185,Restaurante Aladdin,Avinguda de Gaudí 50,restaurant,Barcelona,41.408621297802,2.1743912831539,22,http://tour-pedia.org/api/getReviewsByPlaceId?placeId=141185,7,http://tour-pedia.org/api/getPlaceDetails?id=141185,4dbdb0d86e810768bf7cb02f,Moroccan Restaurant
162829,Bardot,Enrique Granados 147,restaurant,Barcelona,41.394355219493,2.1537512293203,22,http://tour-pedia.org/api/getReviewsByPlaceId?placeId=162829,7,http://tour-pedia.org/api/getPlaceDetails?id=162829,50be158de4b09846c1e24db1,Tapas Restaurant
133049,Cinesa Heron City,Heron City,attraction,Barcelona,41.435552048364,2.1805500984192,22,http://tour-pedia.org/api/getReviewsByPlaceId?placeId=133049,7,http://tour-pedia.org/api/getPlaceDetails?id=133049,4c14fef27f7f2d7f32aae168,Multiplex
134132,Sant Jordi Sagrada Familia,"Freser, 5, Sant Martí, 08026 Barcelona",accommodation,Barcelona,41.409874402883,2.179072201252,22,http://tour-pedia.org/api/getReviewsByPlaceId?placeId=134132,7,http://tour-pedia.org/api/getPlaceDetails?id=134132,,
129678,Granja Elena,"Passeig de la Zona Franca, 228, Barcelona, Spain",restaurant,Barcelona,41.362705,2.137419,23,http://tour-pedia.org/api/getReviewsByPlaceId?placeId=129678,7,http://tour-pedia.org/api/getPlaceDetails?id=129678,,
129907,Starbucks,"Carrer de Ferran, 25, Barcelona, Spain",restaurant,Barcelona,41.381249,2.17527,23,http://tour-pedia.org/api/getReviewsByPlaceId?placeId=129907,7,http://tour-pedia.org/api/getPlaceDetails?id=129907,,
132220,Bar Mandri,"Carrer de Mandri, 54, Barcelona, Spain",restaurant,Barcelona,41.404537,2.132601,23,http://tour-pedia.org/api/getReviewsByPlaceId?placeId=132220,7,http://tour-pedia.org/api/getPlaceDetails?id=132220,,
130213,MarCelOna,"Pg Sant Joan, 84",restaurant,Barcelona,41.397755,2.172046,23,http://tour-pedia.org/api/getReviewsByPlaceId?placeId=130213,7,http://tour-pedia.org/api/getPlaceDetails?id=130213,4b792991f964a52082ed2ee3,Café
146814,La Tagliatella,CC Diagonal Mar,restaurant,Barcelona,41.408629852966,2.216756518476,23,http://tour-pedia.org/api/getReviewsByPlaceId?placeId=146814,7,http://tour-pedia.org/api/getPlaceDetails?id=146814,4e5fdca7fa7631dc4098da12,Italian Restaurant
129467,Hilton Barcelona,"Avenida Diagonal, 589 - 591, Les Corts, 08014 Barcelona",accommodation,Barcelona,41.388778839864,2.130980193615,23,http://tour-pedia.org/api/getReviewsByPlaceId?placeId=129467,7,http://tour-pedia.org/api/getPlaceDetails?id=129467,,
129422,NH Podium,"Bailén, 4-6, L'Eixample, 08010 Barcelona",accommodation,Barcelona,41.391617129909,2.1779208630323,23,http://tour-pedia.org/api/getReviewsByPlaceId?placeId=129422,7,http://tour-pedia.org/api/getPlaceDetails?id=129422,,
144101,Peccato di Gola,"Avinguda del Paraŀlel, 163, Barcelona, Spain",restaurant,Barcelona,41.374824,2.156577,24,http://tour-pedia.org/api/getReviewsByPlaceId?placeId=144101,7,http://tour-pedia.org/api/getPlaceDetails?id=144101,,
148370,Ándele Comidas y Bebidas de México,"Diagonal, 577",restaurant,Barcelona,41.389413613272,2.1352446521125,24,http://tour-pedia.org/api/getReviewsByPlaceId?placeId=148370,7,http://tour-pedia.org/api/getPlaceDetails?id=148370,4e8213dd6c25de15a052df20,Mexican Restaurant
130857,Hotel Villa Emilia,"Carrer Calàbria, 115",attraction,Barcelona,41.38038,2.154092,24,http://tour-pedia.org/api/getReviewsByPlaceId?placeId=130857,7,http://tour-pedia.org/api/getPlaceDetails?id=130857,4ba67a5bf964a520895639e3,Hotel
129785,SMS Delícies,"Carrer d'Astúries, 33, Barcelona, Spain",restaurant,Barcelona,41.403337,2.154227,25,http://tour-pedia.org/api/getReviewsByPlaceId?placeId=129785,7,http://tour-pedia.org/api/getPlaceDetails?id=129785,,
130403,Cafés El Magnífico,"Carrer de l'Argenteria, 64-66",restaurant,Barcelona,41.383548651855,2.1809614312121,25,http://tour-pedia.org/api/getReviewsByPlaceId?placeId=130403,7,http://tour-pedia.org/api/getPlaceDetails?id=130403,4b89528ef964a520852b32e3,Coffee Shop
130954,BEST WESTERN Hotel ALFA Aeropuerto,Calle K,accommodation,Barcelona,41.328164223386,2.1131193637848,25,http://tour-pedia.org/api/getReviewsByPlaceId?placeId=130954,7,http://tour-pedia.org/api/getPlaceDetails?id=130954,4bad1d3cf964a520072f3be3,Hotel
129914,El Otro Bar,"Travessera de Gràcia, 167, Barcelona, Spain",restaurant,Barcelona,41.4014,2.157867,26,http://tour-pedia.org/api/getReviewsByPlaceId?placeId=129914,7,http://tour-pedia.org/api/getPlaceDetails?id=129914,,
131484,Restaurante Crep Nova,"Passeig de la Bonanova, 12, Barcelona, Spain",restaurant,Barcelona,41.405873,2.131824,26,http://tour-pedia.org/api/getReviewsByPlaceId?placeId=131484,7,http://tour-pedia.org/api/getPlaceDetails?id=131484,,
130445,Ugarit,Avinguda d'Icària 168,restaurant,Barcelona,41.391040627993,2.1976089477539,26,http://tour-pedia.org/api/getReviewsByPlaceId?placeId=130445,7,http://tour-pedia.org/api/getPlaceDetails?id=130445,4b8c0341f964a52062b832e3,Middle Eastern Restaurant
130819,Chilam Balam,Industria 156,restaurant,Barcelona,41.409699,2.17449165,26,http://tour-pedia.org/api/getReviewsByPlaceId?placeId=130819,7,http://tour-pedia.org/api/getPlaceDetails?id=130819,4ba54652f964a520c7f438e3,Mexican Restaurant
129606,Mies van der Rohe Pavilion,"Av. Francesc Ferrer i Guàrdia, 7, Barcelona, Spain",attraction,Barcelona,41.370585,2.14993,26,http://tour-pedia.org/api/getReviewsByPlaceId?placeId=129606,7,http://tour-pedia.org/api/getPlaceDetails?id=129606,,
130918,Rabipelao,Carrer de la Mercé 26,attraction,Barcelona,41.380238069179,2.1804964542389,26,http://tour-pedia.org/api/getReviewsByPlaceId?placeId=130918,7,http://tour-pedia.org/api/getPlaceDetails?id=130918,4baa8842f964a5202e723ae3,Cocktail Bar
139646,Cúpula Las Arenas,Gran Via de les Corts Catalanes 373-385,attraction,Barcelona,41.376139271429,2.1494248319584,26,http://tour-pedia.org/api/getReviewsByPlaceId?placeId=139646,7,http://tour-pedia.org/api/getPlaceDetails?id=139646,4d90641ed265236a20323417,Scenic Lookout
130641,Restaurante El Mexicano de Arizala,"Carrer d'Arizala, 4, Barcelona, Spain",restaurant,Barcelona,41.375816,2.125498,27,http://tour-pedia.org/api/getReviewsByPlaceId?placeId=130641,7,http://tour-pedia.org/api/getPlaceDetails?id=130641,,
156455,UDON Maquinista,"Potosí, 2, C.C. La Maquinista, Barcelona, Spain",restaurant,Barcelona,41.44041,2.19851,27,http://tour-pedia.org/api/getReviewsByPlaceId?placeId=156455,7,http://tour-pedia.org/api/getPlaceDetails?id=156455,,
129486,H10 Marina Barcelona,"Av. Bogatell, 64-68",restaurant,Barcelona,41.392896026486,2.1927171401585,27,http://tour-pedia.org/api/getReviewsByPlaceId?placeId=129486,7,http://tour-pedia.org/api/getPlaceDetails?id=129486,4adcda4cf964a520df3f21e3,Hotel
133188,Cerveceria InterTapa,,restaurant,Barcelona,41.405186911421,2.1743049033699,27,http://tour-pedia.org/api/getReviewsByPlaceId?placeId=133188,7,http://tour-pedia.org/api/getPlaceDetails?id=133188,4c2101ca266dc9b6a849cfdf,Tapas Restaurant
130740,De Tapa Madre Restaurant,"Carrer de Mallorca, 301, Barcelona, Spain",restaurant,Barcelona,41.39695,2.166528,27,http://tour-pedia.org/api/getReviewsByPlaceId?placeId=130740,7,http://tour-pedia.org/api/getPlaceDetails?id=130740,,
132363,FOC Barceloneta,"Passeig Don Joan Borbó Comte Barcelona, 66",attraction,Barcelona,41.376064605392,2.1889390422175,27,http://tour-pedia.org/api/getReviewsByPlaceId?placeId=132363,7,http://tour-pedia.org/api/getPlaceDetails?id=132363,4bf1a41f52bda59349cbb1b7,Cocktail Bar
129452,Melia Barcelona Sarriá,"Avenida Sarriá, 50, Les Corts, 08029 Barcelona",accommodation,Barcelona,41.390773000584,2.1417143940926,27,http://tour-pedia.org/api/getReviewsByPlaceId?placeId=129452,7,http://tour-pedia.org/api/getPlaceDetails?id=129452,,
129956,Taverna El Glop,"Carrer de Sant Lluís, 24, Barcelona, Spain",restaurant,Barcelona,41.404904,2.159542,28,http://tour-pedia.org/api/getReviewsByPlaceId?placeId=129956,7,http://tour-pedia.org/api/getPlaceDetails?id=129956,,
129660,Pizzería La Gavina Restaurant,"Carrer de Ros de Olano, 17, Barcelona, Spain",restaurant,Barcelona,41.401459,2.155379,28,http://tour-pedia.org/api/getReviewsByPlaceId?placeId=129660,7,http://tour-pedia.org/api/getPlaceDetails?id=129660,,
129549,Bikini,"C/ Diagonal, 547",attraction,Barcelona,41.389495249973,2.1367837786345,28,http://tour-pedia.org/api/getReviewsByPlaceId?placeId=129549,7,http://tour-pedia.org/api/getPlaceDetails?id=129549,,
129426,Kabul Backpackers Hostel,"Plaça Reial, 17, Ciutat Vella, 08002 Barcelona",accommodation,Barcelona,41.379571906306,2.1752594411373,28,http://tour-pedia.org/api/getReviewsByPlaceId?placeId=129426,7,http://tour-pedia.org/api/getPlaceDetails?id=129426,,
130315,Tryp Barcelona Apolo Hotel,"Avenida Paralelo, 57-59, Sants-Montjuïc, 08004 Barcelona",accommodation,Barcelona,41.374652957763,2.170789539814,28,http://tour-pedia.org/api/getReviewsByPlaceId?placeId=130315,7,http://tour-pedia.org/api/getPlaceDetails?id=130315,,
132635,Central Cafe,"Avinguda Diagonal, Barcelona, Spain",restaurant,Barcelona,41.38959,2.135817,29,http://tour-pedia.org/api/getReviewsByPlaceId?placeId=132635,7,http://tour-pedia.org/api/getPlaceDetails?id=132635,,
130579,Cremería Toscana,"C/ Muntaner, 161",restaurant,Barcelona,41.391607446484,2.1528590556467,29,http://tour-pedia.org/api/getReviewsByPlaceId?placeId=130579,7,http://tour-pedia.org/api/getPlaceDetails?id=130579,4b97c9d0f964a5209e1535e3,Ice Cream Shop
134849,Muy Mío,"Santaló, 11",restaurant,Barcelona,41.3948926,2.1467372,29,http://tour-pedia.org/api/getReviewsByPlaceId?placeId=134849,7,http://tour-pedia.org/api/getPlaceDetails?id=134849,4c85eb84d8086dcbd6fd9552,Deli / Bodega
165494,La Tasqueta De Blai,C/ Blai,restaurant,Barcelona,41.37331,2.165507,29,http://tour-pedia.org/api/getReviewsByPlaceId?placeId=165494,7,http://tour-pedia.org/api/getPlaceDetails?id=165494,516f08a7498efec71b31b5d2,Tapas Restaurant
129445,Majestic Hotel & Spa Barcelona GL,"Passeig de Gracia, 68, L'Eixample, 08007 Barcelona",accommodation,Barcelona,41.3935179,2.1639812999999,29,http://tour-pedia.org/api/getReviewsByPlaceId?placeId=129445,7,http://tour-pedia.org/api/getPlaceDetails?id=129445,,
133210,La Caseta del Migdia,"Mirador del Migdia, s/n, Barcelona, Spain",restaurant,Barcelona,41.359674,2.160752,30,http://tour-pedia.org/api/getReviewsByPlaceId?placeId=133210,7,http://tour-pedia.org/api/getPlaceDetails?id=133210,,
129774,Equity Point Centric,"Passeig de Gràcia, 33, L'Eixample, 08007 Barcelona",accommodation,Barcelona,41.391037609645,2.1657429635525,30,http://tour-pedia.org/api/getReviewsByPlaceId?placeId=129774,7,http://tour-pedia.org/api/getPlaceDetails?id=129774,,
131891,Pizzeria Diego,"Rambla de Fabra i Puig, 35, Barcelona, Spain",restaurant,Barcelona,41.430014,2.187346,31,http://tour-pedia.org/api/getReviewsByPlaceId?placeId=131891,7,http://tour-pedia.org/api/getPlaceDetails?id=131891,,
131309,Cañas y Tapas,"Avinguda Diagonal, 3, Barcelona, Spain",restaurant,Barcelona,41.41075,2.217616,31,http://tour-pedia.org/api/getReviewsByPlaceId?placeId=131309,7,http://tour-pedia.org/api/getPlaceDetails?id=131309,,
168737,Bacoa Universitat,"Ronda de la Universitat, 31, Barcelona, Spain",restaurant,Barcelona,41.387046,2.167265,31,http://tour-pedia.org/api/getReviewsByPlaceId?placeId=168737,7,http://tour-pedia.org/api/getPlaceDetails?id=168737,,
130359,Lexington,"C/ Muntaner, 108",attraction,Barcelona,41.388794568637,2.1565621718299,31,http://tour-pedia.org/api/getReviewsByPlaceId?placeId=130359,7,http://tour-pedia.org/api/getPlaceDetails?id=130359,4b859ff1f964a520666931e3,Spanish Restaurant
129468,Gran Hotel Princesa Sofia,"Plaça de Pius XII, 4, Barcelona, Spain",accommodation,Barcelona,41.386602,2.122967,31,http://tour-pedia.org/api/getReviewsByPlaceId?placeId=129468,7,http://tour-pedia.org/api/getPlaceDetails?id=129468,,
129430,NH Calderón,"Rambla Catalunya, 26, L'Eixample, 08007 Barcelona",accommodation,Barcelona,41.389317128427,2.1661520004272,31,http://tour-pedia.org/api/getReviewsByPlaceId?placeId=129430,7,http://tour-pedia.org/api/getPlaceDetails?id=129430,,
133245,Alaire Terrace Bar,Passeig de Gràcia 73 - 75,accommodation,Barcelona,41.39358,2.1623927,31,http://tour-pedia.org/api/getReviewsByPlaceId?placeId=133245,7,http://tour-pedia.org/api/getPlaceDetails?id=133245,4c249254b012b713ae820893,Hotel Bar
131144,Ken Restaurante,"Benet Mateu, 53, Barcelona, Spain",restaurant,Barcelona,41.394239,2.125903,32,http://tour-pedia.org/api/getReviewsByPlaceId?placeId=131144,7,http://tour-pedia.org/api/getPlaceDetails?id=131144,,
129810,Barceló Sants,"Plaza Paisos Catalans, s n, Sants-Montjuïc, 08014 Barcelona",accommodation,Barcelona,41.378735671047,2.1394076943398,32,http://tour-pedia.org/api/getReviewsByPlaceId?placeId=129810,7,http://tour-pedia.org/api/getPlaceDetails?id=129810,,
160543,Le Pain Quotidien,Carrer De Provença 300,restaurant,Barcelona,41.395290213911,2.1623429044998,33,http://tour-pedia.org/api/getReviewsByPlaceId?placeId=160543,7,http://tour-pedia.org/api/getPlaceDetails?id=160543,5041c359e4b065de8f1ec89a,Restaurant
130002,Xemei,"Paseo de la Exposicion, 85, Barcelona, Spain",restaurant,Barcelona,41.371451,2.16075,34,http://tour-pedia.org/api/getReviewsByPlaceId?placeId=130002,7,http://tour-pedia.org/api/getPlaceDetails?id=130002,,
132813,Rabbar,Plaça de la Concòrdia,restaurant,Barcelona,41.38662939,2.132276,34,http://tour-pedia.org/api/getReviewsByPlaceId?placeId=132813,7,http://tour-pedia.org/api/getPlaceDetails?id=132813,4c0777032e80a5933aa175f9,Tapas Restaurant
162356,Toto Restaurante & Wine Bar,Valencia 246,restaurant,Barcelona,41.391043753391,2.16127785061,34,http://tour-pedia.org/api/getReviewsByPlaceId?placeId=162356,7,http://tour-pedia.org/api/getPlaceDetails?id=162356,509e775be4b029db3d9d2676,Restaurant
131270,Pasteleria Mendieta Barcelona,"Carrer de Mallorca, 517, Barcelona, Spain",restaurant,Barcelona,41.408393,2.181807,34,http://tour-pedia.org/api/getReviewsByPlaceId?placeId=131270,7,http://tour-pedia.org/api/getPlaceDetails?id=131270,,
137464,Ohla Hotel,"Via Laietana, 49, Ciutat Vella, 08003 Barcelona",accommodation,Barcelona,41.387001952898,2.1744279563427,34,http://tour-pedia.org/api/getReviewsByPlaceId?placeId=137464,7,http://tour-pedia.org/api/getPlaceDetails?id=137464,,
142431,Art i Sa Barcelona,"C/Colom, 2",restaurant,Barcelona,41.379842764404,2.1747512007045,35,http://tour-pedia.org/api/getReviewsByPlaceId?placeId=142431,7,http://tour-pedia.org/api/getPlaceDetails?id=142431,4de8fc0e88774aa92cacbd14,Café
129500,Hotel 1898,"La Rambla, 109, Ciutat Vella, 08002 Barcelona",accommodation,Barcelona,41.383502369868,2.1711972355843,36,http://tour-pedia.org/api/getReviewsByPlaceId?placeId=129500,7,http://tour-pedia.org/api/getPlaceDetails?id=129500,,
130611,Residencia Melon District Marina,"Sancho de Ávila, 22, Sant Martí, 08018 Barcelona",accommodation,Barcelona,41.397475427477,2.1885122358799,36,http://tour-pedia.org/api/getReviewsByPlaceId?placeId=130611,7,http://tour-pedia.org/api/getPlaceDetails?id=130611,,
154831,El Club de la Hamburguesa,"C. de Valdonzella, 3",restaurant,Barcelona,41.384901,2.16668,38,http://tour-pedia.org/api/getReviewsByPlaceId?placeId=154831,7,http://tour-pedia.org/api/getPlaceDetails?id=154831,4f5bc30ae4b035e313d89026,Burger Joint
129813,Hotel Pulitzer,"Bergara, 8, L'Eixample, 08002 Barcelona",accommodation,Barcelona,41.386167825563,2.1682360768318,38,http://tour-pedia.org/api/getReviewsByPlaceId?placeId=129813,7,http://tour-pedia.org/api/getPlaceDetails?id=129813,,
144825,Boo Restaurant Chill Out,"Passeig Marítim de la Mar Bella, 104-124",restaurant,Barcelona,41.399557033518,2.2144557522868,39,http://tour-pedia.org/api/getReviewsByPlaceId?placeId=144825,7,http://tour-pedia.org/api/getPlaceDetails?id=144825,4e2daaa6227197a112f03fd5,Spanish Restaurant
132455,Flaherty´s Irish Pub,"Plaza Joaquim Xirau i Palau, s/n, Barcelona, Spain",restaurant,Barcelona,41.378448,2.176664,39,http://tour-pedia.org/api/getReviewsByPlaceId?placeId=132455,7,http://tour-pedia.org/api/getPlaceDetails?id=132455,,
150612,Muccis,"Carrer dels Tallers, 75, Barcelona, Spain",restaurant,Barcelona,41.38496,2.166795,39,http://tour-pedia.org/api/getReviewsByPlaceId?placeId=150612,7,http://tour-pedia.org/api/getPlaceDetails?id=150612,,
129935,Racó de la Vila,"Ciutat de Granada, 33",restaurant,Barcelona,41.397524096673,2.1992179378087,40,http://tour-pedia.org/api/getReviewsByPlaceId?placeId=129935,7,http://tour-pedia.org/api/getPlaceDetails?id=129935,,
132616,Mayura,Girona 57,restaurant,Barcelona,41.394060027663,2.1722318382738,40,http://tour-pedia.org/api/getReviewsByPlaceId?placeId=132616,7,http://tour-pedia.org/api/getPlaceDetails?id=132616,4bfc2db5a118a5931c126eb6,Indian Restaurant
130698,XIX Bar,Rocafort 19,attraction,Barcelona,41.376112121243,2.157607925671,40,http://tour-pedia.org/api/getReviewsByPlaceId?placeId=130698,7,http://tour-pedia.org/api/getPlaceDetails?id=130698,4b9ec475f964a520540037e3,Cocktail Bar
129787,La Candela,"Plaça de Sant Pere, 12, Barcelona, Spain",restaurant,Barcelona,41.38932,2.178878,41,http://tour-pedia.org/api/getReviewsByPlaceId?placeId=129787,7,http://tour-pedia.org/api/getPlaceDetails?id=129787,,
143959,En Apartè,"Carrer de Lluís el Piadós, 2",restaurant,Barcelona,41.389851,2.1789306666667,42,http://tour-pedia.org/api/getReviewsByPlaceId?placeId=143959,7,http://tour-pedia.org/api/getPlaceDetails?id=143959,4e1755d088777e9647659325,French Restaurant
136513,Cheese´s Art Restaurant,"Carrer d'Enric Granados, 13, Barcelona, Spain",restaurant,Barcelona,41.387555,2.162528,42,http://tour-pedia.org/api/getReviewsByPlaceId?placeId=136513,7,http://tour-pedia.org/api/getPlaceDetails?id=136513,,
143083,bBurger Barcelona,"Carrer d'Aragó, 36, Barcelona, Spain",restaurant,Barcelona,41.380879,2.15004,42,http://tour-pedia.org/api/getReviewsByPlaceId?placeId=143083,7,http://tour-pedia.org/api/getPlaceDetails?id=143083,,
146688,Tlaxcal,Comerç 27,restaurant,Barcelona,41.384972,2.184327,43,http://tour-pedia.org/api/getReviewsByPlaceId?placeId=146688,7,http://tour-pedia.org/api/getPlaceDetails?id=146688,4e5cefb0aeb73819c62a7417,Mexican Restaurant
130557,Polaroid Bar,Carrer dels Còdols 29,attraction,Barcelona,41.379337268528,2.1787152829924,43,http://tour-pedia.org/api/getReviewsByPlaceId?placeId=130557,7,http://tour-pedia.org/api/getPlaceDetails?id=130557,4b963a2ff964a52071c134e3,Bar
137268,Muntanya de Montjuïc,Montjuïc,attraction,Barcelona,41.362637808162,2.1583843231201,43,http://tour-pedia.org/api/getReviewsByPlaceId?placeId=137268,7,http://tour-pedia.org/api/getPlaceDetails?id=137268,4d26c189342d6dcbb4c3e6ca,Mountain
130096,Sol de NIT,"Plaça del Sol, 9, Barcelona, Spain",restaurant,Barcelona,41.401823,2.156893,45,http://tour-pedia.org/api/getReviewsByPlaceId?placeId=130096,7,http://tour-pedia.org/api/getPlaceDetails?id=130096,,
131187,Bangkok Cafe,"Carrer d'Evarist Arnús, 65, Barcelona, Spain",restaurant,Barcelona,41.383731,2.136126,45,http://tour-pedia.org/api/getReviewsByPlaceId?placeId=131187,7,http://tour-pedia.org/api/getPlaceDetails?id=131187,,
129722,L'Antic Teatre,Carrer Verdaguer i Callís 12,attraction,Barcelona,41.387156069771,2.176094918315,45,http://tour-pedia.org/api/getReviewsByPlaceId?placeId=129722,7,http://tour-pedia.org/api/getPlaceDetails?id=129722,4adcda58f964a520bf4321e3,Bar
129895,Piscolabis,"Avinguda Diagonal, 593, Barcelona, Spain",restaurant,Barcelona,41.38877,2.130874,46,http://tour-pedia.org/api/getReviewsByPlaceId?placeId=129895,7,http://tour-pedia.org/api/getPlaceDetails?id=129895,,
137306,Salero,"Carrer del Rec, 60, Barcelona, Spain",restaurant,Barcelona,41.384277,2.18406,46,http://tour-pedia.org/api/getReviewsByPlaceId?placeId=137306,7,http://tour-pedia.org/api/getPlaceDetails?id=137306,,
131859,Sonora Sports Tavern,Pamplona 96,attraction,Barcelona,41.397886851163,2.1899039392827,47,http://tour-pedia.org/api/getReviewsByPlaceId?placeId=131859,7,http://tour-pedia.org/api/getPlaceDetails?id=131859,4bd94b1ccc5b9521e149f24f,Sports Bar
129507,Euskal Etxea (Restaurant),"Placeta de Montcada, 1, Barcelona, Spain",restaurant,Barcelona,41.384519,2.181924,48,http://tour-pedia.org/api/getReviewsByPlaceId?placeId=129507,7,http://tour-pedia.org/api/getPlaceDetails?id=129507,,
132755,Temaki-ya,"Carrer d'En Gignàs, 28, Barcelona, Spain",restaurant,Barcelona,41.38135,2.180233,48,http://tour-pedia.org/api/getReviewsByPlaceId?placeId=132755,7,http://tour-pedia.org/api/getPlaceDetails?id=132755,,
130782,Café Adonis 1940,Carrer de Bailén 188,restaurant,Barcelona,41.401093,2.164986,49,http://tour-pedia.org/api/getReviewsByPlaceId?placeId=130782,7,http://tour-pedia.org/api/getPlaceDetails?id=130782,4ba3f81ef964a520b57238e3,Cocktail Bar
130631,Borneo,"Carrer del Rec, 49, Barcelona, Spain",restaurant,Barcelona,41.385305,2.182853,49,http://tour-pedia.org/api/getReviewsByPlaceId?placeId=130631,7,http://tour-pedia.org/api/getPlaceDetails?id=130631,,
129499,Casa Fuster G.L Monumento,"Passeig de Gracia, 132, Gràcia, 08008 Barcelona",accommodation,Barcelona,41.397997547899,2.1581174433231,50,http://tour-pedia.org/api/getReviewsByPlaceId?placeId=129499,7,http://tour-pedia.org/api/getPlaceDetails?id=129499,,
158212,Elsa y Fred,"Carrer del Rec Comtal, 11, Barcelona, Spain",restaurant,Barcelona,41.389791,2.179834,52,http://tour-pedia.org/api/getReviewsByPlaceId?placeId=158212,7,http://tour-pedia.org/api/getPlaceDetails?id=158212,,
130339,Hotel Omm,Carrer del Rosselló 265,attraction,Barcelona,41.396142121374,2.1609561151342,53,http://tour-pedia.org/api/getReviewsByPlaceId?placeId=130339,7,http://tour-pedia.org/api/getPlaceDetails?id=130339,4b81c220f964a5204bbc30e3,Hotel
129885,La Burg,"Passeig de Sant Joan Bosco, 55, Barcelona, Spain",restaurant,Barcelona,41.395034,2.126586,54,http://tour-pedia.org/api/getReviewsByPlaceId?placeId=129885,7,http://tour-pedia.org/api/getPlaceDetails?id=129885,,
129419,Barceló Raval,Rambla del Raval 17,restaurant,Barcelona,41.378992107671,2.1696310444055,56,http://tour-pedia.org/api/getReviewsByPlaceId?placeId=129419,7,http://tour-pedia.org/api/getPlaceDetails?id=129419,,
132166,Thai Gardens,"Carrer de la Diputació, 273, Barcelona, Spain",restaurant,Barcelona,41.390965,2.167588,56,http://tour-pedia.org/api/getReviewsByPlaceId?placeId=132166,7,http://tour-pedia.org/api/getPlaceDetails?id=132166,,
141115,NAP,"Carrer de Gombau, 5, Barcelona, Spain",restaurant,Barcelona,41.38679,2.178784,56,http://tour-pedia.org/api/getReviewsByPlaceId?placeId=141115,7,http://tour-pedia.org/api/getPlaceDetails?id=141115,,
150328,Veggie Garden,"Carrer dels Àngels, 3, Barcelona, Spain",restaurant,Barcelona,41.382334,2.168047,56,http://tour-pedia.org/api/getReviewsByPlaceId?placeId=150328,7,http://tour-pedia.org/api/getPlaceDetails?id=150328,,
133103,El Tragaluz,"Passatge de la Concepció, 5, Barcelona, Spain",restaurant,Barcelona,41.394765,2.160424,57,http://tour-pedia.org/api/getReviewsByPlaceId?placeId=133103,7,http://tour-pedia.org/api/getPlaceDetails?id=133103,,
129695,Xiringuito Escribà,"Avenida del Litoral, 42, Barcelona, Spain",restaurant,Barcelona,41.39352,2.20533,60,http://tour-pedia.org/api/getReviewsByPlaceId?placeId=129695,7,http://tour-pedia.org/api/getPlaceDetails?id=129695,,
158350,Ikibana Paralelo,"Av. del Paral·lel, 148",restaurant,Barcelona,41.375155411977,2.1585865430377,62,http://tour-pedia.org/api/getReviewsByPlaceId?placeId=158350,7,http://tour-pedia.org/api/getPlaceDetails?id=158350,4fe62db4e4b0b901afff72d4,Japanese Restaurant
145257,Peggy Sue's,"Travessera de Gràcia, 35, Barcelona, Spain",restaurant,Barcelona,41.394848,2.147387,63,http://tour-pedia.org/api/getReviewsByPlaceId?placeId=145257,7,http://tour-pedia.org/api/getPlaceDetails?id=145257,,
130975,Toyo,"Torrente de L'olla, 10, Barcelona, Spain",restaurant,Barcelona,41.398689,2.161168,65,http://tour-pedia.org/api/getReviewsByPlaceId?placeId=130975,7,http://tour-pedia.org/api/getPlaceDetails?id=130975,,
129521,Lolita Taperia,"Carrer de Tamarit, 104, Local 2-4, Barcelona, Spain",restaurant,Barcelona,41.376162,2.157816,65,http://tour-pedia.org/api/getReviewsByPlaceId?placeId=129521,7,http://tour-pedia.org/api/getPlaceDetails?id=129521,,
129699,Sandwich & Friends,"Paseo Born, 27, Barcelona, Spain",restaurant,Barcelona,41.385294,2.18313,67,http://tour-pedia.org/api/getReviewsByPlaceId?placeId=129699,7,http://tour-pedia.org/api/getPlaceDetails?id=129699,,
132001,Le Cucine Mandarosso,"Carrer de Verdaguer i Callís, 4, Barcelona, Spain",restaurant,Barcelona,41.386935,2.176129,68,http://tour-pedia.org/api/getReviewsByPlaceId?placeId=132001,7,http://tour-pedia.org/api/getPlaceDetails?id=132001,,
142383,Bobby Gin S.L.,"Carrer de Francisco Giner, 47, Barcelona, Spain",restaurant,Barcelona,41.399856,2.158287,70,http://tour-pedia.org/api/getReviewsByPlaceId?placeId=142383,7,http://tour-pedia.org/api/getPlaceDetails?id=142383,,
130041,The Michael Collins Irish Pub,"Plaça de la Sagrada Família, 4",attraction,Barcelona,41.402115931009,2.1724429794264,76,http://tour-pedia.org/api/getReviewsByPlaceId?placeId=130041,7,http://tour-pedia.org/api/getPlaceDetails?id=130041,4b6c6b4cf964a520a1382ce3,Pub
133046,Picnic Restaurant,"Carre comerc 1, Barcelona, Spain",restaurant,Barcelona,41.388794,2.181504,79,http://tour-pedia.org/api/getReviewsByPlaceId?placeId=133046,7,http://tour-pedia.org/api/getPlaceDetails?id=133046,,
130414,Aire de Barcelona,"Passeig de Picasso, 22, Barcelona, Spain",attraction,Barcelona,41.387086,2.183544,79,http://tour-pedia.org/api/getReviewsByPlaceId?placeId=130414,7,http://tour-pedia.org/api/getPlaceDetails?id=130414,,
130010,Jai-Ca,"Carrer de Ginebra, 13, Barcelona, Spain",restaurant,Barcelona,41.38162,2.188217,80,http://tour-pedia.org/api/getReviewsByPlaceId?placeId=130010,7,http://tour-pedia.org/api/getPlaceDetails?id=130010,,
143200,La Taqueria,"Passatge de Font, 5, Barcelona, Spain",restaurant,Barcelona,41.402264,2.175585,80,http://tour-pedia.org/api/getReviewsByPlaceId?placeId=143200,7,http://tour-pedia.org/api/getPlaceDetails?id=143200,,
129849,Milk Bar & Bistro Restaurant,"Carrer d'En Gignàs, 21, Barcelona, Spain",restaurant,Barcelona,41.381317,2.180135,81,http://tour-pedia.org/api/getReviewsByPlaceId?placeId=129849,7,http://tour-pedia.org/api/getPlaceDetails?id=129849,,
130697,Doble Zer00 Restaurant,"Carrer de Jaume Giralt, 53, Barcelona, Spain",restaurant,Barcelona,41.387905,2.178805,83,http://tour-pedia.org/api/getReviewsByPlaceId?placeId=130697,7,http://tour-pedia.org/api/getPlaceDetails?id=130697,,
129520,Paco Meralgo,"Carrer de Muntaner, 171, Barcelona, Spain",restaurant,Barcelona,41.391617,2.152594,84,http://tour-pedia.org/api/getReviewsByPlaceId?placeId=129520,7,http://tour-pedia.org/api/getPlaceDetails?id=129520,,
154167,We Pudding,"Pau Claris, 90",restaurant,Barcelona,41.390138557062,2.1707874674046,87,http://tour-pedia.org/api/getReviewsByPlaceId?placeId=154167,7,http://tour-pedia.org/api/getPlaceDetails?id=154167,4f429181e4b005b536f819b0,Café
138891,Panadería Tallers,"Carrer dels Tallers, 47, Barcelona, Spain",restaurant,Barcelona,41.384796,2.167785,101,http://tour-pedia.org/api/getReviewsByPlaceId?placeId=138891,7,http://tour-pedia.org/api/getPlaceDetails?id=138891,,
156767,Brunch & Cake,"C. d'Enric Granados, 19",restaurant,Barcelona,41.388325933511,2.1617000311168,102,http://tour-pedia.org/api/getReviewsByPlaceId?placeId=156767,7,http://tour-pedia.org/api/getPlaceDetails?id=156767,4fa419c9e4b0a34ac6929c75,Breakfast Spot
129829,El Vaso De Oro,"Calle de Balboa, 6, Barcelona, Spain",restaurant,Barcelona,41.381873,2.187148,104,http://tour-pedia.org/api/getReviewsByPlaceId?placeId=129829,7,http://tour-pedia.org/api/getPlaceDetails?id=129829,,
129487,Quimet & Quimet,"Carrer del Poeta Cabanyes, 25, Barcelona, Spain",restaurant,Barcelona,41.373957,2.165544,110,http://tour-pedia.org/api/getReviewsByPlaceId?placeId=129487,7,http://tour-pedia.org/api/getPlaceDetails?id=129487,,
129786,Pim Pam Burger,"Carrer del Sabateret, 4, Barcelona, Spain",restaurant,Barcelona,41.385714,2.18226,118,http://tour-pedia.org/api/getReviewsByPlaceId?placeId=129786,7,http://tour-pedia.org/api/getPlaceDetails?id=129786,,
133495,Chenji - Qi XIn Mian Guan (齊心面館),Carrer Ali Bei 65,restaurant,Barcelona,41.393712,2.18080235,119,http://tour-pedia.org/api/getReviewsByPlaceId?placeId=133495,7,http://tour-pedia.org/api/getPlaceDetails?id=133495,4c33249a213c2d7fd667365d,Chinese Restaurant
129505,La Flauta,"Calle D´Aribau, 23, Barcelona, Spain",restaurant,Barcelona,41.3869,2.161123,120,http://tour-pedia.org/api/getReviewsByPlaceId?placeId=129505,7,http://tour-pedia.org/api/getPlaceDetails?id=129505,,
129890,Alsur Café (El Born),"Plaza de Sant Cugat, 1, Barcelona, Spain",restaurant,Barcelona,41.386636,2.179974,120,http://tour-pedia.org/api/getReviewsByPlaceId?placeId=129890,7,http://tour-pedia.org/api/getPlaceDetails?id=129890,,
132658,Cup and Cake,"Carrer d'Enric Granados, 145, Barcelona, Spain",restaurant,Barcelona,41.394269,2.153638,126,http://tour-pedia.org/api/getReviewsByPlaceId?placeId=132658,7,http://tour-pedia.org/api/getPlaceDetails?id=132658,,
137300,Kiosko,"Avinguda del Marquès de l'Argentera, 1 bis, Barcelona, Spain",restaurant,Barcelona,41.383474,2.18378,260,http://tour-pedia.org/api/getReviewsByPlaceId?placeId=137300,7,http://tour-pedia.org/api/getPlaceDetails?id=137300,,
131418,Gran Hotel La Florida,"Carretera Vallvidrera-Tibidabo, 83-93, Horta-Guinardó, 08035 Barcelona",accommodation,Barcelona,41.425678005996,2.1207529306412,286,http://tour-pedia.org/api/getReviewsByPlaceId?placeId=131418,7,http://tour-pedia.org/api/getPlaceDetails?id=131418,,
218020,Paso de Zebra festival,"Carrer de les carretes  nº 13 bajos  RAVAL 08001 bcn, Barcelona, 08001, Spain",attraction,Barcelona,41.4065390754,2.10590391369,345,http://tour-pedia.org/api/getReviewsByPlaceId?placeId=218020,7,http://tour-pedia.org/api/getPlaceDetails?id=218020,,
129421,Hotel Rey Juan Carlos I *****,"Av Diagonal, 661-671",accommodation,Barcelona,41.381348996315,2.1090745925903,479,http://tour-pedia.org/api/getReviewsByPlaceId?placeId=129421,7,http://tour-pedia.org/api/getPlaceDetails?id=129421,,
137702,Hospital Dos de Maig,"Carrer del Dos de Maig, 301, Barcelona, Spain",poi,Barcelona,41.410691,2.177061,10,http://tour-pedia.org/api/getReviewsByPlaceId?placeId=137702,6,http://tour-pedia.org/api/getPlaceDetails?id=137702,,
163922,100 montaditos Paral·lel Barcelona,"Avinguda del Paraŀlel, 69, Barcelona, Spain",restaurant,Barcelona,41.37478,2.168403,10,http://tour-pedia.org/api/getReviewsByPlaceId?placeId=163922,6,http://tour-pedia.org/api/getPlaceDetails?id=163922,,
167989,Bodega 1900,"Carrer de Tamarit, 91, Barcelona, Spain",restaurant,Barcelona,41.375506,2.156616,10,http://tour-pedia.org/api/getReviewsByPlaceId?placeId=167989,6,http://tour-pedia.org/api/getPlaceDetails?id=167989,,
130107,AC Hotel Sants by Marriott,Passeig de Sant Antoni 36-40,restaurant,Barcelona,41.377735232766,2.1387209474496,10,http://tour-pedia.org/api/getReviewsByPlaceId?placeId=130107,6,http://tour-pedia.org/api/getPlaceDetails?id=130107,4b716215f964a520eb432de3,Hotel
131151,McDonald's,"Potosí, 2",restaurant,Barcelona,41.440217061195,2.1984672546387,10,http://tour-pedia.org/api/getReviewsByPlaceId?placeId=131151,6,http://tour-pedia.org/api/getPlaceDetails?id=131151,4bb88387314e9521057d489d,Fast Food Restaurant
158598,Wok Street,,restaurant,Barcelona,41.409891,2.216883,10,http://tour-pedia.org/api/getReviewsByPlaceId?placeId=158598,6,http://tour-pedia.org/api/getPlaceDetails?id=158598,4ff35391e4b025109896d045,Ramen /  Noodle House
166926,BOCADITOS,Loreto 22,restaurant,Barcelona,41.389656197626,2.142162322998,10,http://tour-pedia.org/api/getReviewsByPlaceId?placeId=166926,6,http://tour-pedia.org/api/getPlaceDetails?id=166926,51c0c019498ef8d745fea3eb,Tapas Restaurant
135967,Parc de Monterols,Spain,attraction,Barcelona,41.402316,2.141035,10,http://tour-pedia.org/api/getReviewsByPlaceId?placeId=135967,6,http://tour-pedia.org/api/getPlaceDetails?id=135967,,
130307,Plaça George Orwell,Plaça George Orwell,attraction,Barcelona,41.380504918289,2.1773714871879,10,http://tour-pedia.org/api/getReviewsByPlaceId?placeId=130307,6,http://tour-pedia.org/api/getPlaceDetails?id=130307,4b7fdd3bf964a520714130e3,Plaza
133920,Xiscarexantar,"pere iv, 59",attraction,Barcelona,41.396226882935,2.19204686,10,http://tour-pedia.org/api/getReviewsByPlaceId?placeId=133920,6,http://tour-pedia.org/api/getPlaceDetails?id=133920,4c4b0722bad7a593a42a46ab,Bar
140083,Residencia Melon District Poble Sec,"Av. Paral·lel, 101",attraction,Barcelona,41.374924402852,2.1631057288662,10,http://tour-pedia.org/api/getReviewsByPlaceId?placeId=140083,6,http://tour-pedia.org/api/getPlaceDetails?id=140083,4d9d01f148b6224b8b4f1b9f,Hotel
160844,Belushi's Barcelona,Calle Bergara 3,attraction,Barcelona,41.386066200151,2.1675038337708,10,http://tour-pedia.org/api/getReviewsByPlaceId?placeId=160844,6,http://tour-pedia.org/api/getPlaceDetails?id=160844,504e185972da268f4ce57487,Bar
130401,Hotel Medium Prisma,"Avenida Josep Tarradellas, 119-121, Les Corts, 08029 Barcelona",accommodation,Barcelona,41.389031383277,2.1430259943008,10,http://tour-pedia.org/api/getReviewsByPlaceId?placeId=130401,6,http://tour-pedia.org/api/getPlaceDetails?id=130401,,
160677,St Christopher's Inn,"Bergara, 3, L'Eixample, 08001 Barcelona",accommodation,Barcelona,41.386084311622,2.1677023172379,10,http://tour-pedia.org/api/getReviewsByPlaceId?placeId=160677,6,http://tour-pedia.org/api/getPlaceDetails?id=160677,,
129647,La Taula,"Carrer de Sant Màrius, 8, Barcelona, Spain",restaurant,Barcelona,41.404303,2.137656,11,http://tour-pedia.org/api/getReviewsByPlaceId?placeId=129647,6,http://tour-pedia.org/api/getPlaceDetails?id=129647,,
130434,Mario's Pizza Nostra,"Carrer de Portbou, 35, Barcelona, Spain",restaurant,Barcelona,41.376943,2.12656,11,http://tour-pedia.org/api/getReviewsByPlaceId?placeId=130434,6,http://tour-pedia.org/api/getPlaceDetails?id=130434,,
131365,Subway,"Avinguda Diagonal, 3, Barcelona, Spain",restaurant,Barcelona,41.410143,2.216996,11,http://tour-pedia.org/api/getReviewsByPlaceId?placeId=131365,6,http://tour-pedia.org/api/getPlaceDetails?id=131365,,
138045,La Riera Restaurant,"Carrer Regent Mendieta, 15, Barcelona, Spain",restaurant,Barcelona,41.37708,2.122713,11,http://tour-pedia.org/api/getReviewsByPlaceId?placeId=138045,6,http://tour-pedia.org/api/getPlaceDetails?id=138045,,
165015,Avenue Bar,"Carrer del Torrent de l'Olla, 159, Barcelona, Spain",restaurant,Barcelona,41.404459,2.154597,11,http://tour-pedia.org/api/getReviewsByPlaceId?placeId=165015,6,http://tour-pedia.org/api/getPlaceDetails?id=165015,,
130650,El Fornet,,restaurant,Barcelona,41.410152869435,2.1365536255188,11,http://tour-pedia.org/api/getReviewsByPlaceId?placeId=130650,6,http://tour-pedia.org/api/getPlaceDetails?id=130650,4b9cc0f8f964a520df7936e3,Bakery
130856,El Faisan,Gran via 428,restaurant,Barcelona,41.377869844437,2.1530520915985,11,http://tour-pedia.org/api/getReviewsByPlaceId?placeId=130856,6,http://tour-pedia.org/api/getPlaceDetails?id=130856,4ba67749f964a520595539e3,Spanish Restaurant
131856,Store Cafe,Travessera de dalt 25-27,restaurant,Barcelona,41.408631,2.15245,11,http://tour-pedia.org/api/getReviewsByPlaceId?placeId=131856,6,http://tour-pedia.org/api/getPlaceDetails?id=131856,4bd92ddee914a593c5e655fa,Café
140132,Bitte! Wurst,,restaurant,Barcelona,41.376494801513,2.1502306038973,11,http://tour-pedia.org/api/getReviewsByPlaceId?placeId=140132,6,http://tour-pedia.org/api/getPlaceDetails?id=140132,4d9f1071fca1b60ce7ddb550,Hot Dog Joint
155736,Panchito Diagonal Mar,,restaurant,Barcelona,41.409924038819,2.2162377551135,11,http://tour-pedia.org/api/getReviewsByPlaceId?placeId=155736,6,http://tour-pedia.org/api/getPlaceDetails?id=155736,4f7ae6e5e4b0998be78112fe,Mexican Restaurant
130095,Comedia,"Passeig de Gràcia, 13, Barcelona, Spain",attraction,Barcelona,41.389418,2.167683,11,http://tour-pedia.org/api/getReviewsByPlaceId?placeId=130095,6,http://tour-pedia.org/api/getPlaceDetails?id=130095,,
132487,Parc de l'Estació del Nord,Spain,attraction,Barcelona,41.393604,2.184126,11,http://tour-pedia.org/api/getReviewsByPlaceId?placeId=132487,6,http://tour-pedia.org/api/getPlaceDetails?id=132487,,
133657,Sala Montjuic,Castell de Montjuïc,attraction,Barcelona,41.363880012333,2.1650680220491,11,http://tour-pedia.org/api/getReviewsByPlaceId?placeId=133657,6,http://tour-pedia.org/api/getPlaceDetails?id=133657,4c3b66bbbe4620a1944c0c13,Indie Movie Theater
165049,B.A.R.,Mare De Deu Dels Desemparats 9,attraction,Barcelona,41.40142147286,2.15928214186,11,http://tour-pedia.org/api/getReviewsByPlaceId?placeId=165049,6,http://tour-pedia.org/api/getPlaceDetails?id=165049,5153629ae4b0f865a5a74255,Speakeasy
129503,Alberguinn,"Melcior de Palau, 70- 74, Sants-Montjuïc, 08014 Barcelona",accommodation,Barcelona,41.379710774658,2.1345837414265,11,http://tour-pedia.org/api/getReviewsByPlaceId?placeId=129503,6,http://tour-pedia.org/api/getPlaceDetails?id=129503,,
129807,Hotel Actual,"Rosselló, 238, L'Eixample, 08008 Barcelona",accommodation,Barcelona,41.396015681269,2.1610913425684,11,http://tour-pedia.org/api/getReviewsByPlaceId?placeId=129807,6,http://tour-pedia.org/api/getPlaceDetails?id=129807,,
130224,Hotel Reding,"Gravina, 5-7, Ciutat Vella, 08001 Barcelona",accommodation,Barcelona,41.385330668915,2.1656859666109,11,http://tour-pedia.org/api/getReviewsByPlaceId?placeId=130224,6,http://tour-pedia.org/api/getPlaceDetails?id=130224,,
133508,Hotel Husa Illa,"Avenida Diagonal, 555, Les Corts, 08029 Barcelona",accommodation,Barcelona,41.389954013624,2.1358437091112,11,http://tour-pedia.org/api/getReviewsByPlaceId?placeId=133508,6,http://tour-pedia.org/api/getPlaceDetails?id=133508,,
130859,Registre Civil,"Plaça del Duc de Medinaceli, 4",poi,Barcelona,41.378559567185,2.1788656711578,12,http://tour-pedia.org/api/getReviewsByPlaceId?placeId=130859,6,http://tour-pedia.org/api/getPlaceDetails?id=130859,4ba72ba1f964a520248439e3,Courthouse
150370,Gartner Symposium/ITxpo Barcelona,CCIB,poi,Barcelona,41.411449504916,2.2178435325623,12,http://tour-pedia.org/api/getReviewsByPlaceId?placeId=150370,6,http://tour-pedia.org/api/getPlaceDetails?id=150370,4eb68ed6f9f40c39c5ac5cc2,Convention Center
164318,#VMworld 2013 Europe (Fira Gran Via),"Av. Joan Carles I, 64",poi,Barcelona,41.355792871105,2.1369481086731,12,http://tour-pedia.org/api/getReviewsByPlaceId?placeId=164318,6,http://tour-pedia.org/api/getPlaceDetails?id=164318,512939fee4b03a531f70eeeb,Convention Center
135962,El Racó del Taulat,"C/ Taulat, 44, Barcelona, Spain",restaurant,Barcelona,41.39855,2.205132,12,http://tour-pedia.org/api/getReviewsByPlaceId?placeId=135962,6,http://tour-pedia.org/api/getPlaceDetails?id=135962,,
132300,La Tomaquera,,restaurant,Barcelona,41.372293,2.162986,12,http://tour-pedia.org/api/getReviewsByPlaceId?placeId=132300,6,http://tour-pedia.org/api/getPlaceDetails?id=132300,4bef00c4c80dc928235827e3,Mediterranean Restaurant
138381,Bodega d'en Rafael,manso 52,restaurant,Barcelona,41.37732112342,2.161397787851,12,http://tour-pedia.org/api/getReviewsByPlaceId?placeId=138381,6,http://tour-pedia.org/api/getPlaceDetails?id=138381,4d63dfa86973a35dbc6bacea,Winery
158180,Santana,,restaurant,Barcelona,41.399841874017,2.1216345503098,12,http://tour-pedia.org/api/getReviewsByPlaceId?placeId=158180,6,http://tour-pedia.org/api/getPlaceDetails?id=158180,4fdf7d67e4b0199803d5d2f8,Restaurant
166253,Alta Galicia,Rambla de Poblenou,restaurant,Barcelona,41.402613643339,2.1991939301851,12,http://tour-pedia.org/api/getReviewsByPlaceId?placeId=166253,6,http://tour-pedia.org/api/getPlaceDetails?id=166253,5198d05b498ecb04bdc735ec,Restaurant
129429,Catalonia Diagonal Centro,"Balmes, 142 - 146, L'Eixample, 08008 Barcelona",accommodation,Barcelona,41.393781230227,2.1568433940411,12,http://tour-pedia.org/api/getReviewsByPlaceId?placeId=129429,6,http://tour-pedia.org/api/getPlaceDetails?id=129429,,
129454,Olivia Balmes Hotel,"Balmes, 117, L'Eixample, 08008 Barcelona",accommodation,Barcelona,41.392160760995,2.1584701538086,12,http://tour-pedia.org/api/getReviewsByPlaceId?placeId=129454,6,http://tour-pedia.org/api/getPlaceDetails?id=129454,,
129458,NH Rallye,"Travessera de les Corts, 150-152, Les Corts, 08028 Barcelona",accommodation,Barcelona,41.380998814809,2.1270185709,12,http://tour-pedia.org/api/getReviewsByPlaceId?placeId=129458,6,http://tour-pedia.org/api/getPlaceDetails?id=129458,,
131427,Eurostars Angli,"Angli, 60, Sarrià-St. Gervasi, 08017 Barcelona",accommodation,Barcelona,41.403092780362,2.1232098340988,12,http://tour-pedia.org/api/getReviewsByPlaceId?placeId=131427,6,http://tour-pedia.org/api/getPlaceDetails?id=131427,,
159810,NH Barcelona Centro,"Duc, 15, Ciutat Vella, 08002 Barcelona",accommodation,Barcelona,41.38461324124,2.1729674935341,12,http://tour-pedia.org/api/getReviewsByPlaceId?placeId=159810,6,http://tour-pedia.org/api/getPlaceDetails?id=159810,,
129512,Glaciar,"Plaça Reial, 3, Barcelona, Spain",restaurant,Barcelona,41.380242,2.174763,13,http://tour-pedia.org/api/getReviewsByPlaceId?placeId=129512,6,http://tour-pedia.org/api/getPlaceDetails?id=129512,,
129651,St. Rémy,"Carrer d' Iradier, 12, Barcelona, Spain",restaurant,Barcelona,41.403899,2.126027,13,http://tour-pedia.org/api/getReviewsByPlaceId?placeId=129651,6,http://tour-pedia.org/api/getPlaceDetails?id=129651,,
137165,Restaurante Nagisa,"Carrer d'Alfons XII, 34, Barcelona, Spain",restaurant,Barcelona,41.398631,2.149526,13,http://tour-pedia.org/api/getReviewsByPlaceId?placeId=137165,6,http://tour-pedia.org/api/getPlaceDetails?id=137165,,
