id,name,address,category,location,lat,lng,numReviews,reviews,polarity,details,originalId,subCategory
49425,The Pie Crust,"273 High Street, London, United Kingdom",restaurant,London,51.536363,-0.003863,10,http://tour-pedia.org/api/getReviewsByPlaceId?placeId=49425,10,http://tour-pedia.org/api/getPlaceDetails?id=49425,,
80364,Franco Manca,"53 Bedford Hill, London, United Kingdom",restaurant,London,51.443652,-0.150031,10,http://tour-pedia.org/api/getReviewsByPlaceId?placeId=80364,10,http://tour-pedia.org/api/getPlaceDetails?id=80364,,
38597,The Parlour,"167 Stoke Newington Church Street, London, United Kingdom",restaurant,London,51.561299,-0.082169,10,http://tour-pedia.org/api/getReviewsByPlaceId?placeId=38597,10,http://tour-pedia.org/api/getPlaceDetails?id=38597,,
39407,Bruschetta Restaurant,"141-143 London Road, Kingston upon Thames, United Kingdom",restaurant,London,51.410773,-0.293556,10,http://tour-pedia.org/api/getReviewsByPlaceId?placeId=39407,10,http://tour-pedia.org/api/getPlaceDetails?id=39407,,
39868,Rubino,"253 Wimbledon Park Road, London, United Kingdom",restaurant,London,51.444675,-0.206467,10,http://tour-pedia.org/api/getReviewsByPlaceId?placeId=39868,10,http://tour-pedia.org/api/getPlaceDetails?id=39868,,
40005,Norbiton & Dragon,"16 Clifton Road, Kingston upon Thames, United Kingdom",restaurant,London,51.413701,-0.28902,10,http://tour-pedia.org/api/getReviewsByPlaceId?placeId=40005,10,http://tour-pedia.org/api/getPlaceDetails?id=40005,,
41973,Locale Restaurant,"1 Lawn Terrace, London, United Kingdom",restaurant,London,51.465026,0.007839,10,http://tour-pedia.org/api/getReviewsByPlaceId?placeId=41973,10,http://tour-pedia.org/api/getPlaceDetails?id=41973,,
42532,Esquires Coffee,"Unit 12, St. Georges Shopping Centre, St. Ann's Way, Harrow, United Kingdom",restaurant,London,51.58102,-0.336798,10,http://tour-pedia.org/api/getReviewsByPlaceId?placeId=42532,10,http://tour-pedia.org/api/getPlaceDetails?id=42532,,
46404,Little Sardegna,"170 Blackstock Road, Highbury, London, United Kingdom",restaurant,London,51.560156,-0.098762,11,http://tour-pedia.org/api/getReviewsByPlaceId?placeId=46404,10,http://tour-pedia.org/api/getPlaceDetails?id=46404,,
54614,Roots At N1,"115 Hemingford Road, London, United Kingdom",restaurant,London,51.540911,-0.113682,13,http://tour-pedia.org/api/getReviewsByPlaceId?placeId=54614,10,http://tour-pedia.org/api/getPlaceDetails?id=54614,,
41565,Leighton House Museum,"12 Holland Park Road, London, United Kingdom",attraction,London,51.498633,-0.202967,13,http://tour-pedia.org/api/getReviewsByPlaceId?placeId=41565,10,http://tour-pedia.org/api/getPlaceDetails?id=41565,,
40414,Ekachai,Southside Shopping Centre,restaurant,London,51.454475944056,-0.19299884862039,14,http://tour-pedia.org/api/getReviewsByPlaceId?placeId=40414,10,http://tour-pedia.org/api/getPlaceDetails?id=40414,4b92cbd8f964a520901c34e3,Asian Restaurant
49033,Ma Goa,"242-244 Upper Richmond Rd, London, United Kingdom",restaurant,London,51.461401,-0.219206,10,http://tour-pedia.org/api/getReviewsByPlaceId?placeId=49033,9,http://tour-pedia.org/api/getPlaceDetails?id=49033,,
53737,Cafe Bueno,"4 High Street, Town Centre, Romford, United Kingdom",restaurant,London,51.578142,0.179882,10,http://tour-pedia.org/api/getReviewsByPlaceId?placeId=53737,9,http://tour-pedia.org/api/getPlaceDetails?id=53737,,
54222,Bodega 50,"50 Allen Road, London, United Kingdom",restaurant,London,51.555292,-0.081778,10,http://tour-pedia.org/api/getReviewsByPlaceId?placeId=54222,9,http://tour-pedia.org/api/getPlaceDetails?id=54222,,
58429,Metrogusto,"153 Battersea Park Road, London, United Kingdom",restaurant,London,51.47718,-0.145734,10,http://tour-pedia.org/api/getReviewsByPlaceId?placeId=58429,9,http://tour-pedia.org/api/getPlaceDetails?id=58429,,
62910,Pret A Manger,"3 Praed Street, London, United Kingdom",restaurant,London,51.51877,-0.169677,10,http://tour-pedia.org/api/getReviewsByPlaceId?placeId=62910,9,http://tour-pedia.org/api/getPlaceDetails?id=62910,,
63493,The Lawn Bistro,"67 High Street, London, United Kingdom",restaurant,London,51.425387,-0.218297,10,http://tour-pedia.org/api/getReviewsByPlaceId?placeId=63493,9,http://tour-pedia.org/api/getPlaceDetails?id=63493,,
66646,Adriatico,"12-14 Mitre Street, The City, London, United Kingdom",restaurant,London,51.513872,-0.07875,10,http://tour-pedia.org/api/getReviewsByPlaceId?placeId=66646,9,http://tour-pedia.org/api/getPlaceDetails?id=66646,,
69082,Brew For Two,"101 Morning Lane, London, United Kingdom",restaurant,London,51.547066,-0.051375,10,http://tour-pedia.org/api/getReviewsByPlaceId?placeId=69082,9,http://tour-pedia.org/api/getPlaceDetails?id=69082,,
70491,Morena Bakery,"40 Cheshire Street, London, United Kingdom",restaurant,London,51.523528,-0.069887,10,http://tour-pedia.org/api/getReviewsByPlaceId?placeId=70491,9,http://tour-pedia.org/api/getPlaceDetails?id=70491,,
75967,Chicks on Fire,"11 Hercules Street, London, United Kingdom",restaurant,London,51.559369,-0.12041,10,http://tour-pedia.org/api/getReviewsByPlaceId?placeId=75967,9,http://tour-pedia.org/api/getPlaceDetails?id=75967,,
78528,The Crystal Palace Market,"3-7 Church Road, London, United Kingdom",restaurant,London,51.419512,-0.078641,10,http://tour-pedia.org/api/getReviewsByPlaceId?placeId=78528,9,http://tour-pedia.org/api/getPlaceDetails?id=78528,,
80026,Jam In A Jar,"599 Green Lanes, London, United Kingdom",restaurant,London,51.58443,-0.10023,10,http://tour-pedia.org/api/getReviewsByPlaceId?placeId=80026,9,http://tour-pedia.org/api/getPlaceDetails?id=80026,,
42132,The Hamlet,"10 Streatham High Road, London, United Kingdom",restaurant,London,51.437778,-0.127384,10,http://tour-pedia.org/api/getReviewsByPlaceId?placeId=42132,9,http://tour-pedia.org/api/getPlaceDetails?id=42132,,
35854,The Market Thai,"240 Portobello Road, London, United Kingdom",restaurant,London,51.517622,-0.206196,10,http://tour-pedia.org/api/getReviewsByPlaceId?placeId=35854,9,http://tour-pedia.org/api/getPlaceDetails?id=35854,,
36227,Italo,"13 Bonnington Square, London, United Kingdom",restaurant,London,51.484455,-0.12036,10,http://tour-pedia.org/api/getReviewsByPlaceId?placeId=36227,9,http://tour-pedia.org/api/getPlaceDetails?id=36227,,
36773,22 North Street,"22 North Street, Clapham Old Town, London, United Kingdom",restaurant,London,51.466496,-0.142181,10,http://tour-pedia.org/api/getReviewsByPlaceId?placeId=36773,9,http://tour-pedia.org/api/getPlaceDetails?id=36773,,
36805,Thai Cafe & Restaurant,"22 Charlwood Street, London, United Kingdom",restaurant,London,51.490916,-0.137605,10,http://tour-pedia.org/api/getReviewsByPlaceId?placeId=36805,9,http://tour-pedia.org/api/getPlaceDetails?id=36805,,
36939,Moment Expresso Bar,"248 West End Lane, London, United Kingdom",restaurant,London,51.551281,-0.191535,10,http://tour-pedia.org/api/getReviewsByPlaceId?placeId=36939,9,http://tour-pedia.org/api/getPlaceDetails?id=36939,,
37439,Caminata,"96 Bedford Hill, London, United Kingdom",restaurant,London,51.441718,-0.149212,10,http://tour-pedia.org/api/getReviewsByPlaceId?placeId=37439,9,http://tour-pedia.org/api/getPlaceDetails?id=37439,,
37872,The Kitchen Table,"37 Mill Lane, London, United Kingdom",restaurant,London,51.552012,-0.197556,10,http://tour-pedia.org/api/getReviewsByPlaceId?placeId=37872,9,http://tour-pedia.org/api/getPlaceDetails?id=37872,,
38053,Davids,"341 W End Ln, London, United Kingdom",restaurant,London,51.552125,-0.193074,10,http://tour-pedia.org/api/getReviewsByPlaceId?placeId=38053,9,http://tour-pedia.org/api/getPlaceDetails?id=38053,,
39719,Thai Tho Wimbledon,"20 High Street, United Kingdom",restaurant,London,51.424985,-0.217054,10,http://tour-pedia.org/api/getReviewsByPlaceId?placeId=39719,9,http://tour-pedia.org/api/getPlaceDetails?id=39719,,
39747,Tandis,"73 Haverstock Hill, London, United Kingdom",restaurant,London,51.546438,-0.157741,10,http://tour-pedia.org/api/getReviewsByPlaceId?placeId=39747,9,http://tour-pedia.org/api/getPlaceDetails?id=39747,,
40000,The Grove,"9 Grove Road, Surbiton, United Kingdom",restaurant,London,51.396519,-0.306343,10,http://tour-pedia.org/api/getReviewsByPlaceId?placeId=40000,9,http://tour-pedia.org/api/getPlaceDetails?id=40000,,
40356,Chix Chox,"793 High Road, London, United Kingdom",restaurant,London,51.615725,-0.176905,10,http://tour-pedia.org/api/getReviewsByPlaceId?placeId=40356,9,http://tour-pedia.org/api/getPlaceDetails?id=40356,,
41615,The Arkley,"Barnet Road, Arkley, United Kingdom",restaurant,London,51.65246,-0.219516,10,http://tour-pedia.org/api/getReviewsByPlaceId?placeId=41615,9,http://tour-pedia.org/api/getPlaceDetails?id=41615,,
41644,Pappadums,"GC1, Ferry Quays, Ferry Lane, Brentford, United Kingdom",restaurant,London,51.483898,-0.300771,10,http://tour-pedia.org/api/getReviewsByPlaceId?placeId=41644,9,http://tour-pedia.org/api/getPlaceDetails?id=41644,,
41956,Woo Lot,"592 Lea Bridge Rd, London, United Kingdom",restaurant,London,51.574402,-0.013986,10,http://tour-pedia.org/api/getReviewsByPlaceId?placeId=41956,9,http://tour-pedia.org/api/getPlaceDetails?id=41956,,
42598,Behesht Restaurant,"1082-1086 Harrow Road, London, United Kingdom",restaurant,London,51.531969,-0.232447,10,http://tour-pedia.org/api/getReviewsByPlaceId?placeId=42598,9,http://tour-pedia.org/api/getPlaceDetails?id=42598,,
42773,Pepenero,"The Sphere, Unit three, Royal Docks, 114 Silvertown Way, London, United Kingdom",restaurant,London,51.512473,0.01074,10,http://tour-pedia.org/api/getReviewsByPlaceId?placeId=42773,9,http://tour-pedia.org/api/getPlaceDetails?id=42773,,
43574,Memsaheb on Thames,"65-67 Amsterdam Road, London, United Kingdom",restaurant,London,51.495572,-0.006802,10,http://tour-pedia.org/api/getReviewsByPlaceId?placeId=43574,9,http://tour-pedia.org/api/getPlaceDetails?id=43574,,
44617,Little Italy,"22 Old London Road, Kingston upon Thames, United Kingdom",restaurant,London,51.410718,-0.300616,10,http://tour-pedia.org/api/getReviewsByPlaceId?placeId=44617,9,http://tour-pedia.org/api/getPlaceDetails?id=44617,,
45306,Sree Krishna Indian,"192-194 Tooting High Street, London, United Kingdom",restaurant,London,51.424046,-0.172215,10,http://tour-pedia.org/api/getReviewsByPlaceId?placeId=45306,9,http://tour-pedia.org/api/getPlaceDetails?id=45306,,
45565,The French Cafe,"16-18 Ritherdon Road, London, United Kingdom",restaurant,London,51.438143,-0.155347,10,http://tour-pedia.org/api/getReviewsByPlaceId?placeId=45565,9,http://tour-pedia.org/api/getPlaceDetails?id=45565,,
45779,Som Tam House,"131 Askew Road, London, United Kingdom",restaurant,London,51.502512,-0.242731,10,http://tour-pedia.org/api/getReviewsByPlaceId?placeId=45779,9,http://tour-pedia.org/api/getPlaceDetails?id=45779,,
46509,Lime Bar & Restaurant,"1, Regetta Point, Manilla Street, London, United Kingdom",restaurant,London,51.501237,-0.025684,10,http://tour-pedia.org/api/getReviewsByPlaceId?placeId=46509,9,http://tour-pedia.org/api/getPlaceDetails?id=46509,,
39325,Starbucks,"Unit 5, 17-35 Gloucester Rd",restaurant,London,51.498026657403,-0.18372366813368,10,http://tour-pedia.org/api/getReviewsByPlaceId?placeId=39325,9,http://tour-pedia.org/api/getPlaceDetails?id=39325,4b68131cf964a52034662be3,Coffee Shop
43583,Le Pot Lyonnais,36-40 Queenstown Rd.,restaurant,London,51.467825174332,-0.15048,10,http://tour-pedia.org/api/getReviewsByPlaceId?placeId=43583,9,http://tour-pedia.org/api/getPlaceDetails?id=43583,4bdd64854ffaa59384566ff7,French Restaurant
280202,Avo Hotel,"82 Dalston Lane, London, United Kingdom",restaurant,London,51.546139,-0.070147,10,http://tour-pedia.org/api/getReviewsByPlaceId?placeId=280202,9,http://tour-pedia.org/api/getPlaceDetails?id=280202,,
39276,The Kenton,38 Kenton Road,attraction,London,51.544181,-0.044506,10,http://tour-pedia.org/api/getReviewsByPlaceId?placeId=39276,9,http://tour-pedia.org/api/getPlaceDetails?id=39276,,
45519,The Grove,39 Oldridge Rd.,attraction,London,51.448266098917,-0.1510074898223,10,http://tour-pedia.org/api/getReviewsByPlaceId?placeId=45519,9,http://tour-pedia.org/api/getPlaceDetails?id=45519,,
35945,Cecil Sharp House,2 Regents Park Rd,attraction,London,51.538076046762,-0.14932009487788,10,http://tour-pedia.org/api/getReviewsByPlaceId?placeId=35945,9,http://tour-pedia.org/api/getPlaceDetails?id=35945,4ac518e6f964a52012ab20e3,Music Venue
36941,Earl Ferrers,Ferrers Road,attraction,London,51.423709169917,-0.13247147546181,10,http://tour-pedia.org/api/getReviewsByPlaceId?placeId=36941,9,http://tour-pedia.org/api/getPlaceDetails?id=36941,,
37521,Paternoster Square,Paternoster Sq.,attraction,London,51.514725174257,-0.10012149810791,10,http://tour-pedia.org/api/getReviewsByPlaceId?placeId=37521,9,http://tour-pedia.org/api/getPlaceDetails?id=37521,4af81a31f964a520fe0a22e3,Plaza
39048,Hotel Rafayel,34 Lombard Rd,attraction,London,51.470382,-0.17792715,10,http://tour-pedia.org/api/getReviewsByPlaceId?placeId=39048,9,http://tour-pedia.org/api/getPlaceDetails?id=39048,4b5d7ef1f964a520f05e29e3,Hotel
40313,The Monkey Puzzle,,attraction,London,51.516522,-0.169964,10,http://tour-pedia.org/api/getReviewsByPlaceId?placeId=40313,9,http://tour-pedia.org/api/getPlaceDetails?id=40313,4b8ffdbbf964a520986e33e3,Pub
45873,Enfield Golf Club,Old Park Road South,attraction,London,51.650954061123,-0.09926685878487,10,http://tour-pedia.org/api/getReviewsByPlaceId?placeId=45873,9,http://tour-pedia.org/api/getPlaceDetails?id=45873,4c1de81fb9f876b078567e46,Golf Course
47531,Premier Inn,1 Duke's St,attraction,London,51.527489234626,-0.12923955917358,10,http://tour-pedia.org/api/getReviewsByPlaceId?placeId=47531,9,http://tour-pedia.org/api/getPlaceDetails?id=47531,4c53e29afd2ea5934a0f2d29,Hotel
53442,Walthamstow,Everywhere!,attraction,London,51.590136070576,-0.017509460449219,10,http://tour-pedia.org/api/getReviewsByPlaceId?placeId=53442,9,http://tour-pedia.org/api/getPlaceDetails?id=53442,4d49e13f782f370475097237,Neighborhood
66110,The Arch Climbing Wall - Biscuit Factory,100 Clements Rd,attraction,London,51.494463966625,-0.062301319362863,10,http://tour-pedia.org/api/getReviewsByPlaceId?placeId=66110,9,http://tour-pedia.org/api/getPlaceDetails?id=66110,4f5b8175e4b0b28dd3ee9857,Athletics & Sports
246467,Climb London West 1,"Seymour Leisure Centre, Seymour Place, London, United Kingdom",attraction,London,51.518663,-0.162953,10,http://tour-pedia.org/api/getReviewsByPlaceId?placeId=246467,9,http://tour-pedia.org/api/getPlaceDetails?id=246467,,
52004,San Marco,"1 Station Buildings, Bruce Grove, London, United Kingdom",restaurant,London,51.594216,-0.07015,11,http://tour-pedia.org/api/getReviewsByPlaceId?placeId=52004,9,http://tour-pedia.org/api/getPlaceDetails?id=52004,,
53355,Black Vanilla,"32 Tranquil Vale, London, United Kingdom",restaurant,London,51.466366,0.008808,11,http://tour-pedia.org/api/getReviewsByPlaceId?placeId=53355,9,http://tour-pedia.org/api/getPlaceDetails?id=53355,,
55518,SW9 Sushi Bar,"62 Brixton Road, London, United Kingdom",restaurant,London,51.478859,-0.112103,11,http://tour-pedia.org/api/getReviewsByPlaceId?placeId=55518,9,http://tour-pedia.org/api/getPlaceDetails?id=55518,,
60098,New London Cafe,"216 Saint Paul's Road, London, United Kingdom",restaurant,London,51.547284,-0.097086,11,http://tour-pedia.org/api/getReviewsByPlaceId?placeId=60098,9,http://tour-pedia.org/api/getPlaceDetails?id=60098,,
65944,The Step,"101 Myddleton Road, London, United Kingdom",restaurant,London,51.606355,-0.117904,11,http://tour-pedia.org/api/getReviewsByPlaceId?placeId=65944,9,http://tour-pedia.org/api/getPlaceDetails?id=65944,,
68601,La Petite Bretagne,"5-7 Beadon Road, London, United Kingdom",restaurant,London,51.493284,-0.225519,11,http://tour-pedia.org/api/getReviewsByPlaceId?placeId=68601,9,http://tour-pedia.org/api/getPlaceDetails?id=68601,,
70169,The Black Pig with White Pearls,"61 Stoke Newington High St, London, United Kingdom",restaurant,London,51.558825,-0.074431,11,http://tour-pedia.org/api/getReviewsByPlaceId?placeId=70169,9,http://tour-pedia.org/api/getPlaceDetails?id=70169,,
70823,Snowflake Gelato,"43 Westbourne Grove, London, United Kingdom",restaurant,London,51.515479,-0.190212,11,http://tour-pedia.org/api/getReviewsByPlaceId?placeId=70823,9,http://tour-pedia.org/api/getPlaceDetails?id=70823,,
72677,The Fields Beneath,"52 Prince of Wales Road, London, United Kingdom",restaurant,London,51.546327,-0.146481,11,http://tour-pedia.org/api/getReviewsByPlaceId?placeId=72677,9,http://tour-pedia.org/api/getPlaceDetails?id=72677,,
76290,Harvest E8,"132 Kingsland High Street, London, United Kingdom",restaurant,London,51.549282,-0.07517,11,http://tour-pedia.org/api/getReviewsByPlaceId?placeId=76290,9,http://tour-pedia.org/api/getPlaceDetails?id=76290,,
69913,This Bright Field,"268 Cambridge Heath Road, London, United Kingdom",restaurant,London,51.533649,-0.057156,11,http://tour-pedia.org/api/getReviewsByPlaceId?placeId=69913,9,http://tour-pedia.org/api/getPlaceDetails?id=69913,,
36232,Amici Delicatessen,"78 High Road, London, United Kingdom",restaurant,London,51.589279,-0.163795,11,http://tour-pedia.org/api/getReviewsByPlaceId?placeId=36232,9,http://tour-pedia.org/api/getPlaceDetails?id=36232,,
37710,The Walpole,"35 Saint Mary's Road, London, United Kingdom",restaurant,London,51.50596,-0.304922,11,http://tour-pedia.org/api/getReviewsByPlaceId?placeId=37710,9,http://tour-pedia.org/api/getPlaceDetails?id=37710,,
37779,Slurp,"138 Merton Road, London, United Kingdom",restaurant,London,51.418993,-0.193455,11,http://tour-pedia.org/api/getReviewsByPlaceId?placeId=37779,9,http://tour-pedia.org/api/getPlaceDetails?id=37779,,
38623,Thai Square Restaurant,"136-138 Minories, London, United Kingdom",restaurant,London,51.512422,-0.075703,11,http://tour-pedia.org/api/getReviewsByPlaceId?placeId=38623,9,http://tour-pedia.org/api/getPlaceDetails?id=38623,,
39007,From The Forest,"1 Devonshire Road, London, United Kingdom",restaurant,London,51.439399,-0.053929,11,http://tour-pedia.org/api/getReviewsByPlaceId?placeId=39007,9,http://tour-pedia.org/api/getPlaceDetails?id=39007,,
39020,Pappa Ciccia,"41 Fulham High Street, London, United Kingdom",restaurant,London,51.470144,-0.210152,11,http://tour-pedia.org/api/getReviewsByPlaceId?placeId=39020,9,http://tour-pedia.org/api/getPlaceDetails?id=39020,,
39690,Jin Go Gae,"272 Burlington Road, Town Centre, New Malden, United Kingdom",restaurant,London,51.40006,-0.239093,11,http://tour-pedia.org/api/getReviewsByPlaceId?placeId=39690,9,http://tour-pedia.org/api/getPlaceDetails?id=39690,,
39768,Frog On The Green,"119 Consort Road, London, United Kingdom",restaurant,London,51.467807,-0.061983,11,http://tour-pedia.org/api/getReviewsByPlaceId?placeId=39768,9,http://tour-pedia.org/api/getPlaceDetails?id=39768,,
40130,Anar Persian Kitchen,"349 Portobello Road, London, United Kingdom",restaurant,London,51.521499,-0.210567,11,http://tour-pedia.org/api/getReviewsByPlaceId?placeId=40130,9,http://tour-pedia.org/api/getPlaceDetails?id=40130,,
40251,Rosso Restaurant,"1 The Broadway, Woodford Green, United Kingdom",restaurant,London,51.607503,0.033012,11,http://tour-pedia.org/api/getReviewsByPlaceId?placeId=40251,9,http://tour-pedia.org/api/getPlaceDetails?id=40251,,
40804,Inside Restaurant,"19 Greenwich South Street, London, United Kingdom",restaurant,London,51.477389,-0.012196,11,http://tour-pedia.org/api/getReviewsByPlaceId?placeId=40804,9,http://tour-pedia.org/api/getPlaceDetails?id=40804,,
41201,Dulwich Tandoori,"54 Lordship Lane, London, United Kingdom",restaurant,London,51.458893,-0.074798,11,http://tour-pedia.org/api/getReviewsByPlaceId?placeId=41201,9,http://tour-pedia.org/api/getPlaceDetails?id=41201,,
43589,Macaron Patisserie,"22 The Pavement, London, United Kingdom",restaurant,London,51.462125,-0.139969,11,http://tour-pedia.org/api/getReviewsByPlaceId?placeId=43589,9,http://tour-pedia.org/api/getPlaceDetails?id=43589,,
44982,Hala Restaurant,"Green Lanes, London, United Kingdom",restaurant,London,51.580341,-0.099091,11,http://tour-pedia.org/api/getReviewsByPlaceId?placeId=44982,9,http://tour-pedia.org/api/getPlaceDetails?id=44982,,
45379,Dan & Decarlo,"20 High Road, London, United Kingdom",restaurant,London,51.587504,-0.164017,11,http://tour-pedia.org/api/getReviewsByPlaceId?placeId=45379,9,http://tour-pedia.org/api/getPlaceDetails?id=45379,,
46050,Osteria Pulcinella,"36 Church Street, Twickenham, United Kingdom",restaurant,London,51.446628,-0.327562,11,http://tour-pedia.org/api/getReviewsByPlaceId?placeId=46050,9,http://tour-pedia.org/api/getPlaceDetails?id=46050,,
66234,Gillray's Steakhouse & Bar,"County Hall, Westminster Bridge Road, London, United Kingdom",restaurant,London,51.50161,-0.119154,11,http://tour-pedia.org/api/getReviewsByPlaceId?placeId=66234,9,http://tour-pedia.org/api/getPlaceDetails?id=66234,,
69530,The Old Frizzle,74 The Broadway,attraction,London,51.419624,-0.202236,11,http://tour-pedia.org/api/getReviewsByPlaceId?placeId=69530,9,http://tour-pedia.org/api/getPlaceDetails?id=69530,,
36815,Pontefract Castle,71 Wigmore St.,attraction,London,51.516025,-0.150654,11,http://tour-pedia.org/api/getReviewsByPlaceId?placeId=36815,9,http://tour-pedia.org/api/getPlaceDetails?id=36815,4ad7a422f964a520200d21e3,Bar
49799,New Malden,,attraction,London,51.402362405955,-0.25832825896699,11,http://tour-pedia.org/api/getReviewsByPlaceId?placeId=49799,9,http://tour-pedia.org/api/getPlaceDetails?id=49799,4c9768bf6b35a1433bb835dc,Other Great Outdoors
62484,Apex Temple Court Hotel,"London,   United Kingdom    1-2 Serjeant's Inn, Fleet Street, City of London, London, EC4Y 1LL",accommodation,London,51.513733673614,-0.10853826999664,11,http://tour-pedia.org/api/getReviewsByPlaceId?placeId=62484,9,http://tour-pedia.org/api/getPlaceDetails?id=62484,,
53700,Purl,"50-54 Blandford Street, London, United Kingdom",restaurant,London,51.518421,-0.154431,12,http://tour-pedia.org/api/getReviewsByPlaceId?placeId=53700,9,http://tour-pedia.org/api/getPlaceDetails?id=53700,,
55778,Ariana II,"241 Kilburn High Road, London, United Kingdom",restaurant,London,51.542742,-0.199122,12,http://tour-pedia.org/api/getReviewsByPlaceId?placeId=55778,9,http://tour-pedia.org/api/getPlaceDetails?id=55778,,
58861,I Love Coffee,"126 Streatham High Road, London, United Kingdom",restaurant,London,51.433745,-0.128473,12,http://tour-pedia.org/api/getReviewsByPlaceId?placeId=58861,9,http://tour-pedia.org/api/getPlaceDetails?id=58861,,
60259,Healthy Stuff,"168 Dalston Lane, London, United Kingdom",restaurant,London,51.54822,-0.065606,12,http://tour-pedia.org/api/getReviewsByPlaceId?placeId=60259,9,http://tour-pedia.org/api/getPlaceDetails?id=60259,,
76051,Bouchon Fourchette,"171 Mare Street, London, United Kingdom",restaurant,London,51.540008,-0.055941,12,http://tour-pedia.org/api/getReviewsByPlaceId?placeId=76051,9,http://tour-pedia.org/api/getPlaceDetails?id=76051,,
76573,Cafe Route,"Unit A, Gaumont Tower, 60 Roseberry Place, London, United Kingdom",restaurant,London,51.545841,-0.074185,12,http://tour-pedia.org/api/getReviewsByPlaceId?placeId=76573,9,http://tour-pedia.org/api/getPlaceDetails?id=76573,,
68549,46b Espresso Hut,46b Brooksby Walk,restaurant,London,51.550236116899,-0.04305051898973,12,http://tour-pedia.org/api/getReviewsByPlaceId?placeId=68549,9,http://tour-pedia.org/api/getPlaceDetails?id=68549,,
36408,Gurkha's,"67 Sydenham Road, United Kingdom",restaurant,London,51.426199,-0.051183,12,http://tour-pedia.org/api/getReviewsByPlaceId?placeId=36408,9,http://tour-pedia.org/api/getPlaceDetails?id=36408,,
36568,Starbucks,"77 Tottenham Street, London, United Kingdom",restaurant,London,51.520721,-0.134657,12,http://tour-pedia.org/api/getReviewsByPlaceId?placeId=36568,9,http://tour-pedia.org/api/getPlaceDetails?id=36568,,
37919,Côte,"8 High Street, London, United Kingdom",restaurant,London,51.424368,-0.216071,12,http://tour-pedia.org/api/getReviewsByPlaceId?placeId=37919,9,http://tour-pedia.org/api/getPlaceDetails?id=37919,,
38036,Cafe Seventy Nine,"79 Regent's Park Road, London, United Kingdom",restaurant,London,51.541391,-0.157298,12,http://tour-pedia.org/api/getReviewsByPlaceId?placeId=38036,9,http://tour-pedia.org/api/getPlaceDetails?id=38036,,
38852,The Olive Garden,"48 Coombe Lane, London, United Kingdom",restaurant,London,51.409551,-0.230953,12,http://tour-pedia.org/api/getReviewsByPlaceId?placeId=38852,9,http://tour-pedia.org/api/getPlaceDetails?id=38852,,
39522,Beirut Express,"65 Old Brompton Road, London, United Kingdom",restaurant,London,51.492978,-0.176303,12,http://tour-pedia.org/api/getReviewsByPlaceId?placeId=39522,9,http://tour-pedia.org/api/getPlaceDetails?id=39522,,
40028,Dockmaster's House,"1 Hertsmere Road, London, United Kingdom",restaurant,London,51.508182,-0.024278,12,http://tour-pedia.org/api/getReviewsByPlaceId?placeId=40028,9,http://tour-pedia.org/api/getPlaceDetails?id=40028,,
40188,Melanzana,"140 Westbridge Road, London, United Kingdom",restaurant,London,51.475342,-0.175008,12,http://tour-pedia.org/api/getReviewsByPlaceId?placeId=40188,9,http://tour-pedia.org/api/getPlaceDetails?id=40188,,
41721,You Don't Bring Me Flowers,"15 Staplehurst Road, London, United Kingdom",restaurant,London,51.453043,-0.000834,12,http://tour-pedia.org/api/getReviewsByPlaceId?placeId=41721,9,http://tour-pedia.org/api/getPlaceDetails?id=41721,,
46847,The Beach Hut,"28A Highbury Park, London, United Kingdom",restaurant,London,51.55411,-0.098038,12,http://tour-pedia.org/api/getReviewsByPlaceId?placeId=46847,9,http://tour-pedia.org/api/getPlaceDetails?id=46847,,
47616,The Elephant Inn,"283 Ballards Lane, London, North Finchley, United Kingdom",restaurant,London,51.611495,-0.179103,12,http://tour-pedia.org/api/getReviewsByPlaceId?placeId=47616,9,http://tour-pedia.org/api/getPlaceDetails?id=47616,,
35837,Aglio e Olio,"194 Fulham Road, London, United Kingdom",restaurant,London,51.48608,-0.181006,12,http://tour-pedia.org/api/getReviewsByPlaceId?placeId=35837,9,http://tour-pedia.org/api/getPlaceDetails?id=35837,,
37897,Laxeiro,93 Columbia Rd.,restaurant,London,51.529775712682,-0.068750479105466,12,http://tour-pedia.org/api/getReviewsByPlaceId?placeId=37897,9,http://tour-pedia.org/api/getPlaceDetails?id=37897,4b127df2f964a5203a8a23e3,Tapas Restaurant
42540,eat TOKYO,14 North End Road,restaurant,London,51.571611,-0.194314,12,http://tour-pedia.org/api/getReviewsByPlaceId?placeId=42540,9,http://tour-pedia.org/api/getPlaceDetails?id=42540,4bc99d873740b713adf75e65,Sushi Restaurant
58810,Zealand Road Café,Zealand Rd.,restaurant,London,51.531386,-0.037848,12,http://tour-pedia.org/api/getReviewsByPlaceId?placeId=58810,9,http://tour-pedia.org/api/getPlaceDetails?id=58810,4e216acc483b041af1ec7028,Café
37450,Lexi Cinema,"194b Chamberlayne Rd, London, United Kingdom",attraction,London,51.537745,-0.222619,12,http://tour-pedia.org/api/getReviewsByPlaceId?placeId=37450,9,http://tour-pedia.org/api/getPlaceDetails?id=37450,,
47519,Manor Arms,Mitcham Lane,attraction,London,51.428200031424,-0.1322467727039,12,http://tour-pedia.org/api/getReviewsByPlaceId?placeId=47519,9,http://tour-pedia.org/api/getPlaceDetails?id=47519,4c534b5f479fc9285c6a3a91,Pub
47662,The Harrington - Serviced Apartments and Residences,1 Harrington Gardens,accommodation,London,51.493254527832,-0.18210053443909,12,http://tour-pedia.org/api/getReviewsByPlaceId?placeId=47662,9,http://tour-pedia.org/api/getPlaceDetails?id=47662,4c57bb6d7329c928229c8f80,Residential Building (Apartment / Condo)
59075,Brixton Village,"Coldharbour Lane, London, United Kingdom",restaurant,London,51.462399,-0.111849,13,http://tour-pedia.org/api/getReviewsByPlaceId?placeId=59075,9,http://tour-pedia.org/api/getPlaceDetails?id=59075,,
60376,Potli,"319-321 King Street, London, United Kingdom",restaurant,London,51.493444,-0.240902,13,http://tour-pedia.org/api/getReviewsByPlaceId?placeId=60376,9,http://tour-pedia.org/api/getPlaceDetails?id=60376,,
71636,White Mulberries,"D3 Ivory House, St Katherine Docks, London, United Kingdom",restaurant,London,51.507291,-0.071433,13,http://tour-pedia.org/api/getReviewsByPlaceId?placeId=71636,9,http://tour-pedia.org/api/getPlaceDetails?id=71636,,
78807,100 Hoxton Restaurant,"100-102 Hoxton Street, London, United Kingdom",restaurant,London,51.531037,-0.080072,13,http://tour-pedia.org/api/getReviewsByPlaceId?placeId=78807,9,http://tour-pedia.org/api/getPlaceDetails?id=78807,,
36934,The Dolphin,"121 Sydenham Road, United Kingdom",restaurant,London,51.425858,-0.048687,13,http://tour-pedia.org/api/getReviewsByPlaceId?placeId=36934,9,http://tour-pedia.org/api/getPlaceDetails?id=36934,,
38683,Chamomile,"45 England's Lane, London NW3 4YD, United Kingdom",restaurant,London,51.545663,-0.162295,13,http://tour-pedia.org/api/getReviewsByPlaceId?placeId=38683,9,http://tour-pedia.org/api/getPlaceDetails?id=38683,,
40024,Simplicity,"1 Tunnel Road, London, United Kingdom",restaurant,London,51.501272,-0.053121,13,http://tour-pedia.org/api/getReviewsByPlaceId?placeId=40024,9,http://tour-pedia.org/api/getPlaceDetails?id=40024,,
43259,Kervan Sofrasi,"80 Church Street, London, United Kingdom",restaurant,London,51.625825,-0.064697,13,http://tour-pedia.org/api/getReviewsByPlaceId?placeId=43259,9,http://tour-pedia.org/api/getPlaceDetails?id=43259,,
43772,Gola Restaurant,"787 Fulham Road, London, United Kingdom",restaurant,London,51.476201,-0.204544,13,http://tour-pedia.org/api/getReviewsByPlaceId?placeId=43772,9,http://tour-pedia.org/api/getPlaceDetails?id=43772,,
43862,Fishers Fish & Chips,"19 Fulham High Street, London, United Kingdom",restaurant,London,51.470954,-0.210788,13,http://tour-pedia.org/api/getReviewsByPlaceId?placeId=43862,9,http://tour-pedia.org/api/getPlaceDetails?id=43862,,
44130,Stone Cave,"111 Kingsland High Street, London, United Kingdom",restaurant,London,51.549973,-0.075404,13,http://tour-pedia.org/api/getReviewsByPlaceId?placeId=44130,9,http://tour-pedia.org/api/getPlaceDetails?id=44130,,
66005,Aji Ichiban,8 Nelson Road,restaurant,London,51.481057108793,-0.0088763201678385,13,http://tour-pedia.org/api/getReviewsByPlaceId?placeId=66005,9,http://tour-pedia.org/api/getPlaceDetails?id=66005,4f57afa0e4b0f1f15077d100,Japanese Restaurant
46948,The Swan Inn,46 Hammersmith Broadway,attraction,London,51.492912714683,-0.22477793397099,13,http://tour-pedia.org/api/getReviewsByPlaceId?placeId=46948,9,http://tour-pedia.org/api/getPlaceDetails?id=46948,,
38354,The Crown and Anchor,374 Chiswick High Rd,attraction,London,51.492639281915,-0.26394169314092,13,http://tour-pedia.org/api/getReviewsByPlaceId?placeId=38354,9,http://tour-pedia.org/api/getPlaceDetails?id=38354,4b3cb437f964a520528625e3,Pub
39058,Bush Hall,310 Uxbridge Rd.,attraction,London,51.506418603013,-0.231614112854,13,http://tour-pedia.org/api/getReviewsByPlaceId?placeId=39058,9,http://tour-pedia.org/api/getPlaceDetails?id=39058,4b5e0cfdf964a520037b29e3,Concert Hall
46162,Threadneedles Hotel,"5 Threadneedle Street, London, United Kingdom",accommodation,London,51.514099,-0.085562,13,http://tour-pedia.org/api/getReviewsByPlaceId?placeId=46162,9,http://tour-pedia.org/api/getPlaceDetails?id=46162,,
50568,Season Kitchen,"53 Stroud Green Road, London, United Kingdom",restaurant,London,51.56785,-0.109549,14,http://tour-pedia.org/api/getReviewsByPlaceId?placeId=50568,9,http://tour-pedia.org/api/getPlaceDetails?id=50568,,
54441,The Star & Anchor Pub,"94 Uxbridge Road, London, United Kingdom",restaurant,London,51.511569,-0.315834,14,http://tour-pedia.org/api/getReviewsByPlaceId?placeId=54441,9,http://tour-pedia.org/api/getPlaceDetails?id=54441,,
62194,Baileys Fish & Chips Take Away,"115 Dawes Road, London, United Kingdom",restaurant,London,51.480323,-0.204058,14,http://tour-pedia.org/api/getReviewsByPlaceId?placeId=62194,9,http://tour-pedia.org/api/getPlaceDetails?id=62194,,
64510,Bar Tozino,"Lassco Ropewalk, Maltby Street, London, United Kingdom",restaurant,London,51.499539,-0.076046,14,http://tour-pedia.org/api/getReviewsByPlaceId?placeId=64510,9,http://tour-pedia.org/api/getPlaceDetails?id=64510,,
79201,Dolcezza,"London, 139 Clapham Road, London, United Kingdom",restaurant,London,51.476206,-0.117921,14,http://tour-pedia.org/api/getReviewsByPlaceId?placeId=79201,9,http://tour-pedia.org/api/getPlaceDetails?id=79201,,
73996,Sweet Thursday,"95 Southgate Road, London, United Kingdom",restaurant,London,51.541123,-0.085262,14,http://tour-pedia.org/api/getReviewsByPlaceId?placeId=73996,9,http://tour-pedia.org/api/getPlaceDetails?id=73996,,
61904,The SparrowHawk,"2 Westow Hill, London, United Kingdom",restaurant,London,51.41966,-0.082888,14,http://tour-pedia.org/api/getReviewsByPlaceId?placeId=61904,9,http://tour-pedia.org/api/getPlaceDetails?id=61904,,
36979,High Tea Of Highgate,"50 Highgate High Street, London, United Kingdom",restaurant,London,51.570777,-0.147405,14,http://tour-pedia.org/api/getReviewsByPlaceId?placeId=36979,9,http://tour-pedia.org/api/getPlaceDetails?id=36979,,
37957,Brazas,"45 Tulse Hill, London, United Kingdom",restaurant,London,51.453878,-0.112977,14,http://tour-pedia.org/api/getReviewsByPlaceId?placeId=37957,9,http://tour-pedia.org/api/getPlaceDetails?id=37957,,
39101,The Sea Cow,"37 Lordship Lane, London, United Kingdom",restaurant,London,51.459402,-0.074936,14,http://tour-pedia.org/api/getReviewsByPlaceId?placeId=39101,9,http://tour-pedia.org/api/getPlaceDetails?id=39101,,
40611,My Coffee Stop,"Platform 1, Enfield Chase Station, Windmill Hill, Enfield, United Kingdom",restaurant,London,51.653302,-0.091003,14,http://tour-pedia.org/api/getReviewsByPlaceId?placeId=40611,9,http://tour-pedia.org/api/getPlaceDetails?id=40611,,
42583,Ahmed Tandoori,"2 The Broadway, Merton, London, United Kingdom",restaurant,London,51.420306,-0.204719,14,http://tour-pedia.org/api/getReviewsByPlaceId?placeId=42583,9,http://tour-pedia.org/api/getPlaceDetails?id=42583,,
43745,The Pottery,"20 Park Road, Kingston upon Thames, United Kingdom",restaurant,London,51.416026,-0.28822,14,http://tour-pedia.org/api/getReviewsByPlaceId?placeId=43745,9,http://tour-pedia.org/api/getPlaceDetails?id=43745,,
68562,Melange Restaurant,"45 Topsfield Parade, Tottenham Lane, London, Crouch End, United Kingdom",restaurant,London,51.581298,-0.121895,14,http://tour-pedia.org/api/getReviewsByPlaceId?placeId=68562,9,http://tour-pedia.org/api/getPlaceDetails?id=68562,,
37741,Rocca di Papa,73 Old Brompton Rd,restaurant,London,51.492870435071,-0.1765912771225,14,http://tour-pedia.org/api/getReviewsByPlaceId?placeId=37741,9,http://tour-pedia.org/api/getPlaceDetails?id=37741,4b083987f964a520b40623e3,Italian Restaurant
40338,Telegraph Hill,"Pepys Road, London, United Kingdom",attraction,London,51.467055,-0.04652,14,http://tour-pedia.org/api/getReviewsByPlaceId?placeId=40338,9,http://tour-pedia.org/api/getPlaceDetails?id=40338,,
57235,Queen Mary's Gardens,"London, United Kingdom",attraction,London,51.527393,-0.153536,14,http://tour-pedia.org/api/getReviewsByPlaceId?placeId=57235,9,http://tour-pedia.org/api/getPlaceDetails?id=57235,,
36549,The Earl Spencer,260-262 Merton Road,attraction,London,51.448215,-0.199212,14,http://tour-pedia.org/api/getReviewsByPlaceId?placeId=36549,9,http://tour-pedia.org/api/getPlaceDetails?id=36549,,
40585,Bar Pepito,"3 Varnishers Yard, The Regent Quarter",attraction,London,51.531013407554,-0.12166500091553,14,http://tour-pedia.org/api/getReviewsByPlaceId?placeId=40585,9,http://tour-pedia.org/api/getPlaceDetails?id=40585,4b993f54f964a520416d35e3,Wine Bar
40980,The Warwick Castle,6 Warwick Pl.,attraction,London,51.522012208637,-0.18378496170044,14,http://tour-pedia.org/api/getReviewsByPlaceId?placeId=40980,9,http://tour-pedia.org/api/getPlaceDetails?id=40980,4ba3d87cf964a520e46538e3,Pub
41461,The Ship & Whale - Shepherd Neame,2 Gulliver Street,attraction,London,51.49685816228,-0.034267902374268,14,http://tour-pedia.org/api/getReviewsByPlaceId?placeId=41461,9,http://tour-pedia.org/api/getPlaceDetails?id=41461,4baf96b5f964a5209f0d3ce3,Pub
68970,Chez Elles Bistroquet,"45 Brick Lane, London, United Kingdom",restaurant,London,51.518662,-0.071704,15,http://tour-pedia.org/api/getReviewsByPlaceId?placeId=68970,9,http://tour-pedia.org/api/getPlaceDetails?id=68970,,
69189,Cook & Garcia,"Unit 1, 25 The Quadrant, Richmond-upon-Thames, Richmond upon Thames, United Kingdom",restaurant,London,51.462656,-0.302774,15,http://tour-pedia.org/api/getReviewsByPlaceId?placeId=69189,9,http://tour-pedia.org/api/getPlaceDetails?id=69189,,
38582,Trinity Restaurant,"4 The Polygon, London, United Kingdom",restaurant,London,51.463513,-0.141567,15,http://tour-pedia.org/api/getReviewsByPlaceId?placeId=38582,9,http://tour-pedia.org/api/getPlaceDetails?id=38582,,
39654,Olive Garden Southfields,"42 Replingham Road, London, United Kingdom",restaurant,London,51.444942,-0.204,15,http://tour-pedia.org/api/getReviewsByPlaceId?placeId=39654,9,http://tour-pedia.org/api/getPlaceDetails?id=39654,,
40913,Red Rose,"38 Brighton Road, Surbiton, United Kingdom",restaurant,London,51.39156,-0.309696,15,http://tour-pedia.org/api/getReviewsByPlaceId?placeId=40913,9,http://tour-pedia.org/api/getPlaceDetails?id=40913,,
47330,Agile Rabbit,"Unit 24, Brixton Village Market, Coldharbour Lane, London, United Kingdom",restaurant,London,51.46261,-0.112368,15,http://tour-pedia.org/api/getReviewsByPlaceId?placeId=47330,9,http://tour-pedia.org/api/getPlaceDetails?id=47330,,
38694,Red Peppers Ltd,"53 Broad Street, Teddington, United Kingdom",restaurant,London,51.426113,-0.337513,15,http://tour-pedia.org/api/getReviewsByPlaceId?placeId=38694,9,http://tour-pedia.org/api/getPlaceDetails?id=38694,,
36439,Orford Saloon Tapas Bar,"32 Orford Road, London, United Kingdom",restaurant,London,51.582532,-0.013162,15,http://tour-pedia.org/api/getReviewsByPlaceId?placeId=36439,9,http://tour-pedia.org/api/getPlaceDetails?id=36439,,
39708,Hop scotch,"72 Honor Oak Park, London, honor oak, United Kingdom",restaurant,London,51.449547,-0.044335,15,http://tour-pedia.org/api/getReviewsByPlaceId?placeId=39708,9,http://tour-pedia.org/api/getPlaceDetails?id=39708,,
36764,The Old Pack Horse,434 Chiswick High Rd.,attraction,London,51.492728287092,-0.266849,15,http://tour-pedia.org/api/getReviewsByPlaceId?placeId=36764,9,http://tour-pedia.org/api/getPlaceDetails?id=36764,4ad6f3eef964a520690821e3,Pub
38541,The Marksman Pub,254 Hackney Rd.,attraction,London,51.53096629492,-0.069608166390633,15,http://tour-pedia.org/api/getReviewsByPlaceId?placeId=38541,9,http://tour-pedia.org/api/getPlaceDetails?id=38541,4b49e9fcf964a520e57526e3,Pub
42801,Coach & Horses Hotel,"Richmond upon Thames,   United Kingdom    8 Kew Green, Kew, Richmond upon Thames, TW9 3BH",accommodation,London,51.483250360982,-0.28649210929871,15,http://tour-pedia.org/api/getReviewsByPlaceId?placeId=42801,9,http://tour-pedia.org/api/getPlaceDetails?id=42801,,
63265,The Alma,"95 Church Rd, London, United Kingdom",restaurant,London,51.417279,-0.080963,16,http://tour-pedia.org/api/getReviewsByPlaceId?placeId=63265,9,http://tour-pedia.org/api/getPlaceDetails?id=63265,,
63315,Velo,"104 Tooley Street, London, United Kingdom",restaurant,London,51.50427,-0.082546,16,http://tour-pedia.org/api/getReviewsByPlaceId?placeId=63315,9,http://tour-pedia.org/api/getPlaceDetails?id=63315,,
77049,The Dairy,"15 The Pavement, London, Clapham, United Kingdom",restaurant,London,51.461781,-0.139296,16,http://tour-pedia.org/api/getReviewsByPlaceId?placeId=77049,9,http://tour-pedia.org/api/getPlaceDetails?id=77049,,
36226,Sapporo Ichiban,"13 Catford Broadway, London, United Kingdom",restaurant,London,51.445149,-0.021852,16,http://tour-pedia.org/api/getReviewsByPlaceId?placeId=36226,9,http://tour-pedia.org/api/getPlaceDetails?id=36226,,
37512,Thai Rice,"239 Elgin Mews North, London, United Kingdom",restaurant,London,51.530215,-0.1861,16,http://tour-pedia.org/api/getReviewsByPlaceId?placeId=37512,9,http://tour-pedia.org/api/getPlaceDetails?id=37512,,
38963,Don Fernando's,"27F The Quadrant, Richmond, London, United Kingdom",restaurant,London,51.462853,-0.302264,16,http://tour-pedia.org/api/getReviewsByPlaceId?placeId=38963,9,http://tour-pedia.org/api/getPlaceDetails?id=38963,,
39831,The Glasshouse,"14 Coombe Road, Town Centre, New Malden, United Kingdom",restaurant,London,51.404307,-0.257165,16,http://tour-pedia.org/api/getReviewsByPlaceId?placeId=39831,9,http://tour-pedia.org/api/getPlaceDetails?id=39831,,
41447,The View Tube,"The Greenway, Marshgate Lane, London, United Kingdom",restaurant,London,51.535344,-0.013174,16,http://tour-pedia.org/api/getReviewsByPlaceId?placeId=41447,9,http://tour-pedia.org/api/getPlaceDetails?id=41447,,
41947,Yasar Halim,"495-497 Green Lanes, London, United Kingdom",restaurant,London,51.580966,-0.099519,16,http://tour-pedia.org/api/getReviewsByPlaceId?placeId=41947,9,http://tour-pedia.org/api/getPlaceDetails?id=41947,,
43638,La Petite Auberge,"283 Upper Street, London, United Kingdom",restaurant,London,51.53992,-0.102325,16,http://tour-pedia.org/api/getReviewsByPlaceId?placeId=43638,9,http://tour-pedia.org/api/getPlaceDetails?id=43638,,
43784,Rustique Cafe,"142 Fortess Road, London, United Kingdom",restaurant,London,51.556199,-0.138714,16,http://tour-pedia.org/api/getReviewsByPlaceId?placeId=43784,9,http://tour-pedia.org/api/getPlaceDetails?id=43784,,
38790,The Sawyers Arms,8-9 London St,attraction,London,51.515546400873,-0.17453670501709,16,http://tour-pedia.org/api/getReviewsByPlaceId?placeId=38790,9,http://tour-pedia.org/api/getPlaceDetails?id=38790,4b54a325f964a52017c427e3,Pub
41038,Yotel,at Terminal 4,accommodation,London,51.459655888651,-0.44670045375824,16,http://tour-pedia.org/api/getReviewsByPlaceId?placeId=41038,9,http://tour-pedia.org/api/getPlaceDetails?id=41038,4ba52470f964a52013e338e3,Hotel
70277,Pullman,100-110 Euston Rd,accommodation,London,51.528498676812,-0.1281721573332,16,http://tour-pedia.org/api/getReviewsByPlaceId?placeId=70277,9,http://tour-pedia.org/api/getPlaceDetails?id=70277,5010104be4b0c9392207fb78,Hotel
72693,The Coffee Jar,"83 Parkway, London, United Kingdom",restaurant,London,51.537238,-0.145484,17,http://tour-pedia.org/api/getReviewsByPlaceId?placeId=72693,9,http://tour-pedia.org/api/getPlaceDetails?id=72693,,
35830,VQ,325 Fulham Rd,restaurant,London,51.486435181353,-0.18008159928252,17,http://tour-pedia.org/api/getReviewsByPlaceId?placeId=35830,9,http://tour-pedia.org/api/getPlaceDetails?id=35830,,
55883,Barossa Fulham,"277 New King's Road, London, United Kingdom",restaurant,London,51.472265,-0.202053,17,http://tour-pedia.org/api/getReviewsByPlaceId?placeId=55883,9,http://tour-pedia.org/api/getPlaceDetails?id=55883,,
35894,French Table,"85 Maple Road, Surbiton, United Kingdom",restaurant,London,51.395091,-0.30785,17,http://tour-pedia.org/api/getReviewsByPlaceId?placeId=35894,9,http://tour-pedia.org/api/getPlaceDetails?id=35894,,
36673,My Village Cafe,"37 Chalk Farm Road, London, United Kingdom",restaurant,London,51.542863,-0.148305,17,http://tour-pedia.org/api/getReviewsByPlaceId?placeId=36673,9,http://tour-pedia.org/api/getPlaceDetails?id=36673,,
38219,Le Querce,"66 Brockley Rise, London, United Kingdom",restaurant,London,51.447923,-0.041051,17,http://tour-pedia.org/api/getReviewsByPlaceId?placeId=38219,9,http://tour-pedia.org/api/getPlaceDetails?id=38219,,
43774,Gran Sasso Ltd,"44-46 Caledonian Road, London, United Kingdom",restaurant,London,51.532084,-0.12038,17,http://tour-pedia.org/api/getReviewsByPlaceId?placeId=43774,9,http://tour-pedia.org/api/getPlaceDetails?id=43774,,
45456,St David Coffee House,"5 David's Road, London, United Kingdom",restaurant,London,51.439761,-0.054089,17,http://tour-pedia.org/api/getReviewsByPlaceId?placeId=45456,9,http://tour-pedia.org/api/getPlaceDetails?id=45456,,
35332,The Lost Angel,339 Battersea Park Rd,attraction,London,51.47418626089,-0.1570326089859,17,http://tour-pedia.org/api/getReviewsByPlaceId?placeId=35332,9,http://tour-pedia.org/api/getPlaceDetails?id=35332,,
42797,The Montague On The Gardens,"London,   United Kingdom    15 Montague Street, Camden, London, WC1B 5BJ",accommodation,London,51.520142993544,-0.12572452425957,17,http://tour-pedia.org/api/getReviewsByPlaceId?placeId=42797,9,http://tour-pedia.org/api/getPlaceDetails?id=42797,,
51769,Peggy Porschen Cakes,"116 Ebury Street, London, United Kingdom",restaurant,London,51.493317,-0.150466,18,http://tour-pedia.org/api/getReviewsByPlaceId?placeId=51769,9,http://tour-pedia.org/api/getPlaceDetails?id=51769,,
53996,Ms. Cupcake,"408 Coldharbour Lane, London, United Kingdom",restaurant,London,51.461741,-0.1133,18,http://tour-pedia.org/api/getReviewsByPlaceId?placeId=53996,9,http://tour-pedia.org/api/getPlaceDetails?id=53996,,
63499,Vagabond,"Unit 20, Osborne Road, London, United Kingdom",restaurant,London,51.568909,-0.110768,18,http://tour-pedia.org/api/getReviewsByPlaceId?placeId=63499,9,http://tour-pedia.org/api/getPlaceDetails?id=63499,,
66095,M1LK,"20 Bedford Hill, London, United Kingdom",restaurant,London,51.444411,-0.150857,18,http://tour-pedia.org/api/getReviewsByPlaceId?placeId=66095,9,http://tour-pedia.org/api/getPlaceDetails?id=66095,,
72937,Graveney and Meadow,"40 Mitcham Road, London, United Kingdom",restaurant,London,51.426978,-0.16673,18,http://tour-pedia.org/api/getReviewsByPlaceId?placeId=72937,9,http://tour-pedia.org/api/getPlaceDetails?id=72937,,
39306,Recipease Jamie Oliver,"48-50 Saint John's Road, London, United Kingdom",restaurant,London,51.462334,-0.167778,18,http://tour-pedia.org/api/getReviewsByPlaceId?placeId=39306,9,http://tour-pedia.org/api/getPlaceDetails?id=39306,,
40940,La Forchetta,"464 Bethnal Green Road, London, United Kingdom",restaurant,London,51.527143,-0.057897,18,http://tour-pedia.org/api/getReviewsByPlaceId?placeId=40940,9,http://tour-pedia.org/api/getPlaceDetails?id=40940,,
41838,A Toca Restaurant,"343 Wandsworth Road, London, United Kingdom",restaurant,London,51.475368,-0.131316,18,http://tour-pedia.org/api/getReviewsByPlaceId?placeId=41838,9,http://tour-pedia.org/api/getPlaceDetails?id=41838,,
42370,Ottoman Kebab House,"193 Fulham Palace Road, London, United Kingdom",restaurant,London,51.484279,-0.219654,18,http://tour-pedia.org/api/getReviewsByPlaceId?placeId=42370,9,http://tour-pedia.org/api/getPlaceDetails?id=42370,,
42376,The Surbiton Flyer,"84 Victoria Rd, Surbiton, United Kingdom",restaurant,London,51.392751,-0.304935,18,http://tour-pedia.org/api/getReviewsByPlaceId?placeId=42376,9,http://tour-pedia.org/api/getPlaceDetails?id=42376,,
38013,The Canbury Arms,"49 Canbury Park Road, Kingston upon Thames, United Kingdom",restaurant,London,51.413238,-0.296678,18,http://tour-pedia.org/api/getReviewsByPlaceId?placeId=38013,9,http://tour-pedia.org/api/getPlaceDetails?id=38013,,
37299,The Oak,137 Westbourne Park Rd.,attraction,London,51.518776179596,-0.1978229531054,18,http://tour-pedia.org/api/getReviewsByPlaceId?placeId=37299,9,http://tour-pedia.org/api/getPlaceDetails?id=37299,,
36652,Primrose Bakery,"69 Gloucester Avenue, London, United Kingdom",restaurant,London,51.539806,-0.151161,19,http://tour-pedia.org/api/getReviewsByPlaceId?placeId=36652,9,http://tour-pedia.org/api/getPlaceDetails?id=36652,,
36880,Local Hero,"640 Fulham Road, London, United Kingdom",restaurant,London,51.476346,-0.204714,19,http://tour-pedia.org/api/getReviewsByPlaceId?placeId=36880,9,http://tour-pedia.org/api/getPlaceDetails?id=36880,,
37865,The Palmerston,"91 Lordship Lane, London, United Kingdom",restaurant,London,51.45802,-0.075074,19,http://tour-pedia.org/api/getReviewsByPlaceId?placeId=37865,9,http://tour-pedia.org/api/getPlaceDetails?id=37865,,
60918,The Real Greek,"Unit R1005, 2 Chestnut Plaza, Westfield Stratford City, Montfichet Road, London, United Kingdom",restaurant,London,51.542531,-0.008294,20,http://tour-pedia.org/api/getReviewsByPlaceId?placeId=60918,9,http://tour-pedia.org/api/getPlaceDetails?id=60918,,
77064,Talkhouse Coffee,"275 Portobello Road, London, United Kingdom",restaurant,London,51.517815,-0.206698,20,http://tour-pedia.org/api/getReviewsByPlaceId?placeId=77064,9,http://tour-pedia.org/api/getPlaceDetails?id=77064,,
35922,The Laughing Gravy,"154 Blackfriars Road, London, United Kingdom",restaurant,London,51.501154,-0.10453,20,http://tour-pedia.org/api/getReviewsByPlaceId?placeId=35922,9,http://tour-pedia.org/api/getPlaceDetails?id=35922,,
36230,The Spence Bakery,"161 Stoke Newington Church Street, London, United Kingdom",restaurant,London,51.561421,-0.081825,20,http://tour-pedia.org/api/getReviewsByPlaceId?placeId=36230,9,http://tour-pedia.org/api/getPlaceDetails?id=36230,,
41347,Côte,"24 Hill Street, Richmond, London, United Kingdom",restaurant,London,51.458954,-0.305881,20,http://tour-pedia.org/api/getReviewsByPlaceId?placeId=41347,9,http://tour-pedia.org/api/getPlaceDetails?id=41347,,
48924,Camino,28 Westferry Circus,restaurant,London,51.505056287617,-0.028023719787598,20,http://tour-pedia.org/api/getReviewsByPlaceId?placeId=48924,9,http://tour-pedia.org/api/getPlaceDetails?id=48924,4c7ea01ed51ea143193a589f,Tapas Restaurant
37489,The Old Nuns Head,"15 Nunhead Green, London, United Kingdom",restaurant,London,51.465168,-0.059454,20,http://tour-pedia.org/api/getReviewsByPlaceId?placeId=37489,9,http://tour-pedia.org/api/getPlaceDetails?id=37489,,
68002,The Clapton Hart,231 Lower Clapton St.,attraction,London,51.55773478142,-0.056239435206517,20,http://tour-pedia.org/api/getReviewsByPlaceId?placeId=68002,9,http://tour-pedia.org/api/getPlaceDetails?id=68002,,
38461,The Assembly House,292-294 Kentish Town Rd,attraction,London,51.550845140377,-0.14063358306885,20,http://tour-pedia.org/api/getReviewsByPlaceId?placeId=38461,9,http://tour-pedia.org/api/getPlaceDetails?id=38461,4b4613a0f964a520951526e3,Pub
41931,The Harrison,"28 Harrison Street, London, United Kingdom",accommodation,London,51.527566,-0.120586,20,http://tour-pedia.org/api/getReviewsByPlaceId?placeId=41931,9,http://tour-pedia.org/api/getPlaceDetails?id=41931,,
52828,Anderson & Co,"139 Bellenden Road, London, United Kingdom",restaurant,London,51.467123,-0.072431,21,http://tour-pedia.org/api/getReviewsByPlaceId?placeId=52828,9,http://tour-pedia.org/api/getPlaceDetails?id=52828,,
36771,Caphe House,"114 Bermondsey Street, London, United Kingdom",restaurant,London,51.500286,-0.081857,21,http://tour-pedia.org/api/getReviewsByPlaceId?placeId=36771,9,http://tour-pedia.org/api/getPlaceDetails?id=36771,,
39032,The Swan,"1, Evershed Walk, 119 Acton Lane, London, United Kingdom",restaurant,London,51.498006,-0.265282,21,http://tour-pedia.org/api/getReviewsByPlaceId?placeId=39032,9,http://tour-pedia.org/api/getPlaceDetails?id=39032,,
41571,Kiraku,"8 Station Parade Uxbridge Road, London, United Kingdom",restaurant,London,51.510244,-0.287362,21,http://tour-pedia.org/api/getReviewsByPlaceId?placeId=41571,9,http://tour-pedia.org/api/getPlaceDetails?id=41571,,
35394,Pineapple,51 Leverton St.,attraction,London,51.552913,-0.139453,21,http://tour-pedia.org/api/getReviewsByPlaceId?placeId=35394,9,http://tour-pedia.org/api/getPlaceDetails?id=35394,4ac518c3f964a52047a420e3,Pub
35785,Chutney Mary,"535 King's Road, London, United Kingdom",restaurant,London,51.479922,-0.186098,22,http://tour-pedia.org/api/getReviewsByPlaceId?placeId=35785,9,http://tour-pedia.org/api/getPlaceDetails?id=35785,,
37153,Ganapati Restaurant,"38 Holly Grove, London, United Kingdom",restaurant,London,51.469655,-0.073027,22,http://tour-pedia.org/api/getReviewsByPlaceId?placeId=37153,9,http://tour-pedia.org/api/getPlaceDetails?id=37153,,
37475,Masters Super Fish,"191 Waterloo Road, London, United Kingdom",restaurant,London,51.500554,-0.107835,22,http://tour-pedia.org/api/getReviewsByPlaceId?placeId=37475,9,http://tour-pedia.org/api/getPlaceDetails?id=37475,,
47231,No 67,"67 Peckham Road, London, United Kingdom",restaurant,London,51.474126,-0.079677,22,http://tour-pedia.org/api/getReviewsByPlaceId?placeId=47231,9,http://tour-pedia.org/api/getPlaceDetails?id=47231,,
40670,Hummingbird Cafe,"1C Oaklands Grove, London, United Kingdom",restaurant,London,51.506691,-0.23678,23,http://tour-pedia.org/api/getReviewsByPlaceId?placeId=40670,9,http://tour-pedia.org/api/getPlaceDetails?id=40670,,
41686,Meson Don Felipe,"53 The Cut, London, United Kingdom",restaurant,London,51.502985,-0.107167,23,http://tour-pedia.org/api/getReviewsByPlaceId?placeId=41686,9,http://tour-pedia.org/api/getPlaceDetails?id=41686,,
36524,The Junction Tavern,"101 Fortess Road, London, United Kingdom",restaurant,London,51.555017,-0.139873,24,http://tour-pedia.org/api/getReviewsByPlaceId?placeId=36524,9,http://tour-pedia.org/api/getPlaceDetails?id=36524,,
40101,Banana Tree,"21-23 Westbourne Grove, London, United Kingdom",restaurant,London,51.515571,-0.189453,24,http://tour-pedia.org/api/getReviewsByPlaceId?placeId=40101,9,http://tour-pedia.org/api/getPlaceDetails?id=40101,,
37678,Caffe Forum,"146 Gloucester Road, Lon, United Kingdom",restaurant,London,51.493607,-0.182181,25,http://tour-pedia.org/api/getReviewsByPlaceId?placeId=37678,9,http://tour-pedia.org/api/getPlaceDetails?id=37678,,
38777,Grind Coffee Bar,"79 Lower Richmond Road, London, United Kingdom",restaurant,London,51.467225,-0.219351,25,http://tour-pedia.org/api/getReviewsByPlaceId?placeId=38777,9,http://tour-pedia.org/api/getPlaceDetails?id=38777,,
40023,The Connaught,"London,   United Kingdom    Carlos Place, Westminster, London, W1K 2AL",accommodation,London,51.510047906253,-0.14961361885071,25,http://tour-pedia.org/api/getReviewsByPlaceId?placeId=40023,9,http://tour-pedia.org/api/getPlaceDetails?id=40023,,
38071,The Marylebone Hotel,"London,   United Kingdom    47 Welbeck Street, Westminster, London, W1G 8DN",accommodation,London,51.517739604262,-0.14969408512115,26,http://tour-pedia.org/api/getReviewsByPlaceId?placeId=38071,9,http://tour-pedia.org/api/getPlaceDetails?id=38071,,
37999,Cafe Phillies,"2A Phillimore Gardens, London, United Kingdom",restaurant,London,51.499882,-0.19775,27,http://tour-pedia.org/api/getReviewsByPlaceId?placeId=37999,9,http://tour-pedia.org/api/getPlaceDetails?id=37999,,
38020,Rock & Rose Restaurant,"106-108 Kew Road, Richmond, United Kingdom",restaurant,London,51.466353,-0.29759,27,http://tour-pedia.org/api/getReviewsByPlaceId?placeId=38020,9,http://tour-pedia.org/api/getPlaceDetails?id=38020,,
40882,Taylor st Baristas,"Unit 3, Westminster House, Kew Road, Richmond, United Kingdom",restaurant,London,51.463554,-0.301774,27,http://tour-pedia.org/api/getReviewsByPlaceId?placeId=40882,9,http://tour-pedia.org/api/getPlaceDetails?id=40882,,
46097,Strada,"2 More London Place, London, United Kingdom",restaurant,London,51.505496,-0.080011,28,http://tour-pedia.org/api/getReviewsByPlaceId?placeId=46097,9,http://tour-pedia.org/api/getPlaceDetails?id=46097,,
63532,Taylor St Baristas,"8 South Colonnade, London, Canary Wharf, United Kingdom",restaurant,London,51.504722,-0.021988,30,http://tour-pedia.org/api/getReviewsByPlaceId?placeId=63532,9,http://tour-pedia.org/api/getPlaceDetails?id=63532,,
38803,The Montcalm,"London,   United Kingdom    34, Great Cumberland Place, Westminster, London, W1H 7TW",accommodation,London,51.515180022129,-0.15936613082886,32,http://tour-pedia.org/api/getReviewsByPlaceId?placeId=38803,9,http://tour-pedia.org/api/getPlaceDetails?id=38803,,
59613,No.1 Traveller Lounge,at Terminal 3,poi,London,51.469514234279,-0.45961944178686,33,http://tour-pedia.org/api/getReviewsByPlaceId?placeId=59613,9,http://tour-pedia.org/api/getPlaceDetails?id=59613,4e410dec2271a89dd088e437,Airport Lounge
39613,St John's,"91 Junction Rd, London, United Kingdom",restaurant,London,51.562992,-0.135773,33,http://tour-pedia.org/api/getReviewsByPlaceId?placeId=39613,9,http://tour-pedia.org/api/getPlaceDetails?id=39613,,
37462,Fix Coffee,"161 Whitecross Street, City of London, United Kingdom",restaurant,London,51.523372,-0.093305,37,http://tour-pedia.org/api/getReviewsByPlaceId?placeId=37462,9,http://tour-pedia.org/api/getPlaceDetails?id=37462,,
41146,NHS Dentist,"355-357 North End Road, London, United Kingdom",poi,London,51.484386,-0.201603,10,http://tour-pedia.org/api/getReviewsByPlaceId?placeId=41146,8,http://tour-pedia.org/api/getPlaceDetails?id=41146,,
38286,Newbury Park London Underground Station,Eastern Ave,poi,London,51.575605984856,0.090358257293701,10,http://tour-pedia.org/api/getReviewsByPlaceId?placeId=38286,8,http://tour-pedia.org/api/getPlaceDetails?id=38286,4b311864f964a5201b0025e3,Subway
49217,Afters Tooting,"41-45 Upper Tooting Road, Tooting, London, United Kingdom",restaurant,London,51.43468,-0.161413,10,http://tour-pedia.org/api/getReviewsByPlaceId?placeId=49217,8,http://tour-pedia.org/api/getPlaceDetails?id=49217,,
50141,Vy Nam Cafe,"371 Regent's Park Road, London, United Kingdom",restaurant,London,51.601009,-0.194231,10,http://tour-pedia.org/api/getReviewsByPlaceId?placeId=50141,8,http://tour-pedia.org/api/getPlaceDetails?id=50141,,
51854,Spice Inn,"22 Romford Road, London, United Kingdom",restaurant,London,51.54204,0.005102,10,http://tour-pedia.org/api/getReviewsByPlaceId?placeId=51854,8,http://tour-pedia.org/api/getPlaceDetails?id=51854,,
56665,Villagio,"206-208 Hammersmith Road, London, United Kingdom",restaurant,London,51.49319,-0.22279,10,http://tour-pedia.org/api/getReviewsByPlaceId?placeId=56665,8,http://tour-pedia.org/api/getPlaceDetails?id=56665,,
57677,Azerbaijan Restaurant,"330 Ballards Lane, London, United Kingdom",restaurant,London,51.612073,-0.178033,10,http://tour-pedia.org/api/getReviewsByPlaceId?placeId=57677,8,http://tour-pedia.org/api/getPlaceDetails?id=57677,,
60933,Rhythm Kitchen,"206 The Balcony, Westfield Stratford, London, United Kingdom",restaurant,London,51.542905,-0.006589,10,http://tour-pedia.org/api/getReviewsByPlaceId?placeId=60933,8,http://tour-pedia.org/api/getPlaceDetails?id=60933,,
61036,The Chelsea Kitchen,"451 Fulham Road, London, United Kingdom",restaurant,London,51.483192,-0.185485,10,http://tour-pedia.org/api/getReviewsByPlaceId?placeId=61036,8,http://tour-pedia.org/api/getPlaceDetails?id=61036,,
64164,Devran Restaurant,"485-487 Green Lanes, London, United Kingdom",restaurant,London,51.580618,-0.0995,10,http://tour-pedia.org/api/getReviewsByPlaceId?placeId=64164,8,http://tour-pedia.org/api/getPlaceDetails?id=64164,,
69148,Côte Brassserie,"6-8 St Christophers Pl, London, United Kingdom",restaurant,London,51.515605,-0.150218,10,http://tour-pedia.org/api/getReviewsByPlaceId?placeId=69148,8,http://tour-pedia.org/api/getPlaceDetails?id=69148,,
69587,Bubbleology,"45 Pembridge Road, London, United Kingdom",restaurant,London,51.510565,-0.197602,10,http://tour-pedia.org/api/getReviewsByPlaceId?placeId=69587,8,http://tour-pedia.org/api/getPlaceDetails?id=69587,,
72259,Le Pain Quotidien,"16 North Audley Street, London, United Kingdom",restaurant,London,51.513269,-0.153419,10,http://tour-pedia.org/api/getReviewsByPlaceId?placeId=72259,8,http://tour-pedia.org/api/getPlaceDetails?id=72259,,
73021,Natural Kitchen Trinity Square,"7 Pepys Street, London, United Kingdom",restaurant,London,51.510832,-0.078164,10,http://tour-pedia.org/api/getReviewsByPlaceId?placeId=73021,8,http://tour-pedia.org/api/getPlaceDetails?id=73021,,
74303,Unpackaged,"197 Richmond Road, London, United Kingdom",restaurant,London,51.54347,-0.05747,10,http://tour-pedia.org/api/getReviewsByPlaceId?placeId=74303,8,http://tour-pedia.org/api/getPlaceDetails?id=74303,,
35303,Rogerios,"157 Putney High Street, London, United Kingdom",restaurant,London,51.461297,-0.216801,10,http://tour-pedia.org/api/getReviewsByPlaceId?placeId=35303,8,http://tour-pedia.org/api/getPlaceDetails?id=35303,,
35331,Cafe Rialto,"825, Fulham Road, London, United Kingdom",restaurant,London,51.475343,-0.205982,10,http://tour-pedia.org/api/getReviewsByPlaceId?placeId=35331,8,http://tour-pedia.org/api/getPlaceDetails?id=35331,,
35936,Chez Lindsay,"11 Hill Rise, Richmond upon Thames, United Kingdom",restaurant,London,51.457882,-0.305297,10,http://tour-pedia.org/api/getReviewsByPlaceId?placeId=35936,8,http://tour-pedia.org/api/getPlaceDetails?id=35936,,
35950,Gurkhas Diner,"1 The Boulevard, Balham High Road, Balham, London, United Kingdom",restaurant,London,51.441152,-0.154589,10,http://tour-pedia.org/api/getReviewsByPlaceId?placeId=35950,8,http://tour-pedia.org/api/getPlaceDetails?id=35950,,
36742,Nona,"300 Kilburn High Road, London, United Kingdom",restaurant,London,51.544302,-0.200645,10,http://tour-pedia.org/api/getReviewsByPlaceId?placeId=36742,8,http://tour-pedia.org/api/getPlaceDetails?id=36742,,
37120,Il Giardino,"7 Blenheim Grove, London, United Kingdom",restaurant,London,51.469536,-0.069052,10,http://tour-pedia.org/api/getReviewsByPlaceId?placeId=37120,8,http://tour-pedia.org/api/getPlaceDetails?id=37120,,
37329,Sagar,"157 King Street, London, United Kingdom",restaurant,London,51.492526,-0.233306,10,http://tour-pedia.org/api/getReviewsByPlaceId?placeId=37329,8,http://tour-pedia.org/api/getPlaceDetails?id=37329,,
37978,Brocca Antica,"139 Saint Margaret's Road, St Margerets, Twickenham, United Kingdom",restaurant,London,51.455891,-0.320865,10,http://tour-pedia.org/api/getReviewsByPlaceId?placeId=37978,8,http://tour-pedia.org/api/getPlaceDetails?id=37978,,
38667,Thai Ming,"1-5 Windmill Row, London, United Kingdom",restaurant,London,51.4875,-0.111556,10,http://tour-pedia.org/api/getReviewsByPlaceId?placeId=38667,8,http://tour-pedia.org/api/getPlaceDetails?id=38667,,
38752,Tagine Restaurant,"3 Fernlea Road, London, United Kingdom",restaurant,London,51.442974,-0.149398,10,http://tour-pedia.org/api/getReviewsByPlaceId?placeId=38752,8,http://tour-pedia.org/api/getPlaceDetails?id=38752,,
39444,Khoai Cafe,"6 Topsfield Pde/Tottenham La, London, United Kingdom",restaurant,London,51.580249,-0.123768,10,http://tour-pedia.org/api/getReviewsByPlaceId?placeId=39444,8,http://tour-pedia.org/api/getPlaceDetails?id=39444,,
40061,AMT Coffee Heathrow T3,"Arrivals, Terminal Three, London, London Heathrow Airport, Hounslow, United Kingdom",restaurant,London,51.470361,-0.458471,10,http://tour-pedia.org/api/getReviewsByPlaceId?placeId=40061,8,http://tour-pedia.org/api/getPlaceDetails?id=40061,,
40568,Pret A Manger,"Unit 5, Fulham Broadway Retail Centre, Fulham Broadway, London, United Kingdom",restaurant,London,51.480798,-0.194686,10,http://tour-pedia.org/api/getReviewsByPlaceId?placeId=40568,8,http://tour-pedia.org/api/getPlaceDetails?id=40568,,
40810,The Olive,"27 Kirkdale Road, London, Leytonstone, United Kingdom",restaurant,London,51.568567,0.009143,10,http://tour-pedia.org/api/getReviewsByPlaceId?placeId=40810,8,http://tour-pedia.org/api/getPlaceDetails?id=40810,,
40907,The Shaftesbury,"121 Kew Road, Richmond, United Kingdom",restaurant,London,51.465595,-0.299174,10,http://tour-pedia.org/api/getReviewsByPlaceId?placeId=40907,8,http://tour-pedia.org/api/getPlaceDetails?id=40907,,
42137,Roz ana,"4-8 Kingston Hill, Kingston upon Thames, United Kingdom",restaurant,London,51.41406,-0.287114,10,http://tour-pedia.org/api/getReviewsByPlaceId?placeId=42137,8,http://tour-pedia.org/api/getPlaceDetails?id=42137,,
42298,Big Breakfast,"82 High Street, Beckenham, United Kingdom",restaurant,London,51.408427,-0.025378,10,http://tour-pedia.org/api/getReviewsByPlaceId?placeId=42298,8,http://tour-pedia.org/api/getPlaceDetails?id=42298,,
42589,Koi Sushi & Noodle Bar,"250 Finchley Road, London, United Kingdom",restaurant,London,51.552889,-0.188266,10,http://tour-pedia.org/api/getReviewsByPlaceId?placeId=42589,8,http://tour-pedia.org/api/getPlaceDetails?id=42589,,
43625,The Best Turkish Kebab,"125 Stoke Newington Road, London, United Kingdom",restaurant,London,51.556045,-0.074699,10,http://tour-pedia.org/api/getReviewsByPlaceId?placeId=43625,8,http://tour-pedia.org/api/getPlaceDetails?id=43625,,
43928,Spaghetti House,"169 Fortess Road, London, United Kingdom",restaurant,London,51.556839,-0.13856,10,http://tour-pedia.org/api/getReviewsByPlaceId?placeId=43928,8,http://tour-pedia.org/api/getPlaceDetails?id=43928,,
44549,The Kew Greenhouse Cafe,"1 Station Parade, Richmond, United Kingdom",restaurant,London,51.477309,-0.286457,10,http://tour-pedia.org/api/getReviewsByPlaceId?placeId=44549,8,http://tour-pedia.org/api/getPlaceDetails?id=44549,,
44761,Il Basilico,"627 Sipson Road, West Drayton, United Kingdom",restaurant,London,51.482295,-0.449002,10,http://tour-pedia.org/api/getReviewsByPlaceId?placeId=44761,8,http://tour-pedia.org/api/getPlaceDetails?id=44761,,
45292,Masaniello,"22 Church Street, Twickenham, United Kingdom",restaurant,London,51.446793,-0.327448,10,http://tour-pedia.org/api/getReviewsByPlaceId?placeId=45292,8,http://tour-pedia.org/api/getPlaceDetails?id=45292,,
45348,Aladdin Fried Chicken,"88 Kingsley Road, Hounslow, United Kingdom",restaurant,London,51.472401,-0.356465,10,http://tour-pedia.org/api/getReviewsByPlaceId?placeId=45348,8,http://tour-pedia.org/api/getPlaceDetails?id=45348,,
45661,Light Cafe,"48 High Street, London, United Kingdom",restaurant,London,51.425266,-0.220971,10,http://tour-pedia.org/api/getReviewsByPlaceId?placeId=45661,8,http://tour-pedia.org/api/getPlaceDetails?id=45661,,
45844,Mouse & De Lotz,"103 Shacklewell Lane, London, United Kingdom",restaurant,London,51.552867,-0.070333,10,http://tour-pedia.org/api/getReviewsByPlaceId?placeId=45844,8,http://tour-pedia.org/api/getPlaceDetails?id=45844,,
46499,Al Forno,"107 High Street, Town Centre, New Malden, United Kingdom",restaurant,London,51.400443,-0.255902,10,http://tour-pedia.org/api/getReviewsByPlaceId?placeId=46499,8,http://tour-pedia.org/api/getPlaceDetails?id=46499,,
46677,Coffee 8,"9-354 Mare Street, United Kingdom",restaurant,London,51.547604,-0.054682,10,http://tour-pedia.org/api/getReviewsByPlaceId?placeId=46677,8,http://tour-pedia.org/api/getPlaceDetails?id=46677,,
46922,Joe's,"126 Draycott Avenue, London, United Kingdom",restaurant,London,51.493721,-0.168505,10,http://tour-pedia.org/api/getReviewsByPlaceId?placeId=46922,8,http://tour-pedia.org/api/getPlaceDetails?id=46922,,
47956,Samsara Restaurant,"25 High Street, Cheam Village, United Kingdom",restaurant,London,51.358034,-0.215279,10,http://tour-pedia.org/api/getReviewsByPlaceId?placeId=47956,8,http://tour-pedia.org/api/getPlaceDetails?id=47956,,
38748,l'epicerie @ 56,56 Chatsword Rd.,restaurant,London,51.55329672456,-0.044673892181516,10,http://tour-pedia.org/api/getReviewsByPlaceId?placeId=38748,8,http://tour-pedia.org/api/getPlaceDetails?id=38748,4b532a99f964a520e09027e3,Deli / Bodega
53552,Costa Coffee,"Unit 6, Lancer Square, Kensington Church Street",restaurant,London,51.503003120285,-0.19148087172017,10,http://tour-pedia.org/api/getReviewsByPlaceId?placeId=53552,8,http://tour-pedia.org/api/getPlaceDetails?id=53552,4d4eccc14f67224b30716650,Coffee Shop
62267,E Mono,285 Kentish Town Road,restaurant,London,51.549003952177,-0.14105489196615,10,http://tour-pedia.org/api/getReviewsByPlaceId?placeId=62267,8,http://tour-pedia.org/api/getPlaceDetails?id=62267,4ea7f7858b8154b19fdef1ee,Middle Eastern Restaurant
73448,Harris + Hoole,Chase Side,restaurant,London,51.632723,-0.127841,10,http://tour-pedia.org/api/getReviewsByPlaceId?placeId=73448,8,http://tour-pedia.org/api/getPlaceDetails?id=73448,50a0def9e4b0548c5df92409,Coffee Shop
77826,The Cornerstone Café,9 Major Draper St.,restaurant,London,51.492483701702,0.070446701925342,10,http://tour-pedia.org/api/getReviewsByPlaceId?placeId=77826,8,http://tour-pedia.org/api/getPlaceDetails?id=77826,5176603ae4b0b278fd919a3e,Café
71109,Gyms Kitchen,"388-392 High Road Leyton, London, United Kingdom",restaurant,London,51.563076,-0.010692,10,http://tour-pedia.org/api/getReviewsByPlaceId?placeId=71109,8,http://tour-pedia.org/api/getPlaceDetails?id=71109,,
38917,The Rocket,11-13 Churchfield Rd,attraction,London,51.508709010903,-0.26385282853594,10,http://tour-pedia.org/api/getReviewsByPlaceId?placeId=38917,8,http://tour-pedia.org/api/getPlaceDetails?id=38917,,
41023,The Tollington,115 Hornsey Road,attraction,London,51.557642656399,-0.11291734632081,10,http://tour-pedia.org/api/getReviewsByPlaceId?placeId=41023,8,http://tour-pedia.org/api/getPlaceDetails?id=41023,,
41043,The Green Dragon,58-60 High St,attraction,London,51.37172512043,-0.10064989328384,10,http://tour-pedia.org/api/getReviewsByPlaceId?placeId=41043,8,http://tour-pedia.org/api/getPlaceDetails?id=41043,,
59535,Electric Brixton,"Town Hall Parade, Brixton, London, SW2 1RJ, United Kingdom",attraction,London,51.460124,-0.116617,10,http://tour-pedia.org/api/getReviewsByPlaceId?placeId=59535,8,http://tour-pedia.org/api/getPlaceDetails?id=59535,,
35611,Osterley Park,Jersey Rd.,attraction,London,51.489854359442,-0.35079002380371,10,http://tour-pedia.org/api/getReviewsByPlaceId?placeId=35611,8,http://tour-pedia.org/api/getPlaceDetails?id=35611,,
35717,Shoreditch,Everywhere!,attraction,London,51.526714947963,-0.079929828643799,10,http://tour-pedia.org/api/getReviewsByPlaceId?placeId=35717,8,http://tour-pedia.org/api/getPlaceDetails?id=35717,4ac518d2f964a52005a720e3,Neighborhood
36382,The Clock House,196A Peckham Rye,attraction,London,51.458872,-0.06619,10,http://tour-pedia.org/api/getReviewsByPlaceId?placeId=36382,8,http://tour-pedia.org/api/getPlaceDetails?id=36382,4acf7484f964a520cdd320e3,Pub
36864,The Thatched House,115 Dalling Rd.,attraction,London,51.49656,-0.23473,10,http://tour-pedia.org/api/getReviewsByPlaceId?placeId=36864,8,http://tour-pedia.org/api/getPlaceDetails?id=36864,4ad9b1c3f964a520721a21e3,Pub
37422,The Washington,50 England's Ln,attraction,London,51.545544,-0.16279,10,http://tour-pedia.org/api/getReviewsByPlaceId?placeId=37422,8,http://tour-pedia.org/api/getPlaceDetails?id=37422,4af0bf5cf964a520d0de21e3,Pub
38742,The Mitre Hotel,291 Greenwich High Rd.,attraction,London,51.48014382745,-0.0095969766474988,10,http://tour-pedia.org/api/getReviewsByPlaceId?placeId=38742,8,http://tour-pedia.org/api/getPlaceDetails?id=38742,4b531ce2f964a520428f27e3,Pub
38979,The Sultan,78 Norman Rd,attraction,London,51.41851295,-0.18500804901123,10,http://tour-pedia.org/api/getReviewsByPlaceId?placeId=38979,8,http://tour-pedia.org/api/getPlaceDetails?id=38979,4b5b2ca2f964a520a9e828e3,Pub
39379,The Goose on the Broadway,78 - 102 Broadway,attraction,London,51.54244506772,0.00274658203125,10,http://tour-pedia.org/api/getReviewsByPlaceId?placeId=39379,8,http://tour-pedia.org/api/getPlaceDetails?id=39379,4b6ace94f964a5203ce12be3,Pub
40119,Fox & Goose,,attraction,London,51.533321574616,-0.29564576339539,10,http://tour-pedia.org/api/getReviewsByPlaceId?placeId=40119,8,http://tour-pedia.org/api/getPlaceDetails?id=40119,4b87c1e0f964a5207cca31e3,Pub
40977,The Red Lion,2 Castelnau,attraction,London,51.475488945945,-0.23894275150567,10,http://tour-pedia.org/api/getReviewsByPlaceId?placeId=40977,8,http://tour-pedia.org/api/getPlaceDetails?id=40977,,
41630,Duke Of Cambridge,228 Battersea Bridge Rd.,attraction,London,51.472929907325,-0.16596436500549,10,http://tour-pedia.org/api/getReviewsByPlaceId?placeId=41630,8,http://tour-pedia.org/api/getPlaceDetails?id=41630,4bb4f358c29a95219dffa735,Pub
42292,The George,114 Glengall Grove,attraction,London,51.496101258933,-0.013913431031681,10,http://tour-pedia.org/api/getReviewsByPlaceId?placeId=42292,8,http://tour-pedia.org/api/getPlaceDetails?id=42292,,
42649,The Gate,Barnet Rd.,attraction,London,51.642098315685,-0.2422571182251,10,http://tour-pedia.org/api/getReviewsByPlaceId?placeId=42649,8,http://tour-pedia.org/api/getPlaceDetails?id=42649,4bcb279f937ca59313eda892,Pub
42739,The Phoenix,Windsor Walk,attraction,London,51.468044501596,-0.089778900146484,10,http://tour-pedia.org/api/getReviewsByPlaceId?placeId=42739,8,http://tour-pedia.org/api/getPlaceDetails?id=42739,4bcddbb28920b7132669a0dc,Pub
51043,Old Red Lion,42 Kennington Park Rd,attraction,London,51.489466343801,-0.10501342692327,10,http://tour-pedia.org/api/getReviewsByPlaceId?placeId=51043,8,http://tour-pedia.org/api/getPlaceDetails?id=51043,,
47733,The Cadogan,"London,   United Kingdom    75 Sloane Street, Kensington and Chelsea, London, SW1X 9SG",accommodation,London,51.496908257137,-0.15907913446426,10,http://tour-pedia.org/api/getReviewsByPlaceId?placeId=47733,8,http://tour-pedia.org/api/getPlaceDetails?id=47733,,
53813,Eccleston Square Hotel,"London,   United Kingdom    37 Eccleston Square, Westminster, London, SW1V 1PB",accommodation,London,51.491215459251,-0.14493584632874,10,http://tour-pedia.org/api/getReviewsByPlaceId?placeId=53813,8,http://tour-pedia.org/api/getPlaceDetails?id=53813,,
74543,Hotel Indigo London Kensington - Earl's Court,"London,   United Kingdom    33-34 Barkston Gardens, Kensington and Chelsea, London, SW5 0EW",accommodation,London,51.492068839755,-0.19151642918587,10,http://tour-pedia.org/api/getReviewsByPlaceId?placeId=74543,8,http://tour-pedia.org/api/getPlaceDetails?id=74543,,
44173,Premier Inn London Kew,"Hounslow,   United Kingdom    52 High Street, Brentford, Hounslow, TW8 0BB",accommodation,London,51.485065971317,-0.30115574598312,10,http://tour-pedia.org/api/getReviewsByPlaceId?placeId=44173,8,http://tour-pedia.org/api/getPlaceDetails?id=44173,,
51745,Best Western Bromley Court Hotel,"Bromley,   United Kingdom    Bromley Hill, Bromley, BR1 4JD",accommodation,London,51.416847464363,0.0026540458202362,10,http://tour-pedia.org/api/getReviewsByPlaceId?placeId=51745,8,http://tour-pedia.org/api/getPlaceDetails?id=51745,,
41297,Premier Inn,Excel East,accommodation,London,51.508448644502,0.038666725158691,10,http://tour-pedia.org/api/getReviewsByPlaceId?placeId=41297,8,http://tour-pedia.org/api/getPlaceDetails?id=41297,4bac005af964a5200add3ae3,Hotel
38371,The Island Bar and Dining Room,123 College Rd.,poi,London,51.535184919139,-0.22634055088418,11,http://tour-pedia.org/api/getReviewsByPlaceId?placeId=38371,8,http://tour-pedia.org/api/getPlaceDetails?id=38371,4b3e3d22f964a520fd9925e3,Road
41301,Virgin Atlantic Revivals Lounge,at Terminal 3 Arrivals,poi,London,51.471987619444,-0.45678019523621,11,http://tour-pedia.org/api/getReviewsByPlaceId?placeId=41301,8,http://tour-pedia.org/api/getPlaceDetails?id=41301,4bac5caef964a520e5f13ae3,Airport Lounge
48976,Zizzi,"43 Market Place, London, United Kingdom",restaurant,London,51.408847,-0.306156,11,http://tour-pedia.org/api/getReviewsByPlaceId?placeId=48976,8,http://tour-pedia.org/api/getPlaceDetails?id=48976,,
50569,Pizzeria Sette Bello,"8 Amen Corner, London, United Kingdom",restaurant,London,51.422888,-0.160077,11,http://tour-pedia.org/api/getReviewsByPlaceId?placeId=50569,8,http://tour-pedia.org/api/getPlaceDetails?id=50569,,
53545,Mani's,"12 Perrin's Court, London, United Kingdom",restaurant,London,51.555784,-0.177619,11,http://tour-pedia.org/api/getReviewsByPlaceId?placeId=53545,8,http://tour-pedia.org/api/getPlaceDetails?id=53545,,
55159,TazZa Coffee,"188 High Street, Sutton, United Kingdom",restaurant,London,51.365632,-0.193989,11,http://tour-pedia.org/api/getReviewsByPlaceId?placeId=55159,8,http://tour-pedia.org/api/getPlaceDetails?id=55159,,
60165,The Bull,"13 North Hill, London, United Kingdom",restaurant,London,51.575495,-0.150741,11,http://tour-pedia.org/api/getReviewsByPlaceId?placeId=60165,8,http://tour-pedia.org/api/getPlaceDetails?id=60165,,
63467,Nabrasa,"505 Garratt Lane, London, United Kingdom",restaurant,London,51.442515,-0.188321,11,http://tour-pedia.org/api/getReviewsByPlaceId?placeId=63467,8,http://tour-pedia.org/api/getPlaceDetails?id=63467,,
63920,Comedor Grill and Bar,"176 Upper Street, London, United Kingdom",restaurant,London,51.541582,-0.10305,11,http://tour-pedia.org/api/getReviewsByPlaceId?placeId=63920,8,http://tour-pedia.org/api/getPlaceDetails?id=63920,,
64736,Blue Elephant,"The Boulevard, Imperial Wharf, Townmead Road, London, United Kingdom",restaurant,London,51.472916,-0.181822,11,http://tour-pedia.org/api/getReviewsByPlaceId?placeId=64736,8,http://tour-pedia.org/api/getPlaceDetails?id=64736,,
68894,The Gantry,"188 Brockley Road, London, United Kingdom",restaurant,London,51.463534,-0.036228,11,http://tour-pedia.org/api/getReviewsByPlaceId?placeId=68894,8,http://tour-pedia.org/api/getPlaceDetails?id=68894,,
70640,Aya Lebanese Cuisine,"193-197 Merton Road, London, United Kingdom",restaurant,London,51.416088,-0.192621,11,http://tour-pedia.org/api/getReviewsByPlaceId?placeId=70640,8,http://tour-pedia.org/api/getPlaceDetails?id=70640,,
73475,Ed's Easy Diner,"Southside Shopping Centre, Garratt Lane, London, United Kingdom",restaurant,London,51.454324,-0.194114,11,http://tour-pedia.org/api/getReviewsByPlaceId?placeId=73475,8,http://tour-pedia.org/api/getPlaceDetails?id=73475,,
73775,Lakwatsa,"7 Blenheim Crescent, London, United Kingdom",restaurant,London,51.515701,-0.205514,11,http://tour-pedia.org/api/getReviewsByPlaceId?placeId=73775,8,http://tour-pedia.org/api/getPlaceDetails?id=73775,,
75779,Floyd's,"89 Shacklewell Lane, London, United Kingdom",restaurant,London,51.552621,-0.070645,11,http://tour-pedia.org/api/getReviewsByPlaceId?placeId=75779,8,http://tour-pedia.org/api/getPlaceDetails?id=75779,,
76078,Gourmet Buffet,"Parkfield Street, London, United Kingdom",restaurant,London,51.534459,-0.106601,11,http://tour-pedia.org/api/getReviewsByPlaceId?placeId=76078,8,http://tour-pedia.org/api/getPlaceDetails?id=76078,,
77474,Story,"201 Tooley Street, London, United Kingdom",restaurant,London,51.502735,-0.077866,11,http://tour-pedia.org/api/getReviewsByPlaceId?placeId=77474,8,http://tour-pedia.org/api/getPlaceDetails?id=77474,,
42535,Laveli,"104 Askew Road, London, United Kingdom",restaurant,London,51.50305,-0.24334,11,http://tour-pedia.org/api/getReviewsByPlaceId?placeId=42535,8,http://tour-pedia.org/api/getPlaceDetails?id=42535,,
57015,Sapori Sardi,"786 Fulham Road, London, United Kingdom",restaurant,London,51.471939,-0.210753,11,http://tour-pedia.org/api/getReviewsByPlaceId?placeId=57015,8,http://tour-pedia.org/api/getPlaceDetails?id=57015,,
35918,Indian Zing,"236 King Street, London, United Kingdom",restaurant,London,51.493297,-0.237044,11,http://tour-pedia.org/api/getReviewsByPlaceId?placeId=35918,8,http://tour-pedia.org/api/getPlaceDetails?id=35918,,
36410,Petitou,"63 Choumert Road, London, United Kingdom",restaurant,London,51.467519,-0.071526,11,http://tour-pedia.org/api/getReviewsByPlaceId?placeId=36410,8,http://tour-pedia.org/api/getPlaceDetails?id=36410,,
36484,Louis Patisserie,"32 Heath Street, London, United Kingdom",restaurant,London,51.555941,-0.178552,11,http://tour-pedia.org/api/getReviewsByPlaceId?placeId=36484,8,http://tour-pedia.org/api/getPlaceDetails?id=36484,,
36508,Mogul,"10 Greenwich Church Street, London, United Kingdom",restaurant,London,51.480982,-0.009344,11,http://tour-pedia.org/api/getReviewsByPlaceId?placeId=36508,8,http://tour-pedia.org/api/getPlaceDetails?id=36508,,
36714,Sable D'or,"The Broadway, London, United Kingdom",restaurant,London,51.579187,-0.123632,11,http://tour-pedia.org/api/getReviewsByPlaceId?placeId=36714,8,http://tour-pedia.org/api/getPlaceDetails?id=36714,,
37144,Ida,"167 5th Ave, London, United Kingdom",restaurant,London,51.531867,-0.211059,11,http://tour-pedia.org/api/getReviewsByPlaceId?placeId=37144,8,http://tour-pedia.org/api/getPlaceDetails?id=37144,,
37313,Lord Palmerston,"33 Dartmouth Park Hill, London, United Kingdom",restaurant,London,51.559603,-0.140201,11,http://tour-pedia.org/api/getReviewsByPlaceId?placeId=37313,8,http://tour-pedia.org/api/getPlaceDetails?id=37313,,
37680,Starbucks,"Unit 2, Eldon Chambers, 30-32 Fleet Street, London, United Kingdom",restaurant,London,51.51386,-0.110162,11,http://tour-pedia.org/api/getReviewsByPlaceId?placeId=37680,8,http://tour-pedia.org/api/getPlaceDetails?id=37680,,
37764,Caffe Paradiso,"45 Shad Thames, Southwark, London, United Kingdom",restaurant,London,51.503919,-0.075104,11,http://tour-pedia.org/api/getReviewsByPlaceId?placeId=37764,8,http://tour-pedia.org/api/getPlaceDetails?id=37764,,
37903,Atariya Food,"15 Monkville Avenue, London, United Kingdom",restaurant,London,51.587312,-0.201589,11,http://tour-pedia.org/api/getReviewsByPlaceId?placeId=37903,8,http://tour-pedia.org/api/getPlaceDetails?id=37903,,
38648,Chanteroy,"233A Wimbledon Park Road, London, United Kingdom",restaurant,London,51.445275,-0.205864,11,http://tour-pedia.org/api/getReviewsByPlaceId?placeId=38648,8,http://tour-pedia.org/api/getPlaceDetails?id=38648,,
38836,Bagel Factory,"London, United Kingdom",restaurant,London,51.516341,-0.176354,11,http://tour-pedia.org/api/getReviewsByPlaceId?placeId=38836,8,http://tour-pedia.org/api/getPlaceDetails?id=38836,,
39129,Giraffe,"196-198 Haverstock Hill, London, United Kingdom",restaurant,London,51.550653,-0.164994,11,http://tour-pedia.org/api/getReviewsByPlaceId?placeId=39129,8,http://tour-pedia.org/api/getPlaceDetails?id=39129,,
39353,Fuji Foods,"167 Priory Road, London, United Kingdom",restaurant,London,51.587386,-0.133204,11,http://tour-pedia.org/api/getReviewsByPlaceId?placeId=39353,8,http://tour-pedia.org/api/getPlaceDetails?id=39353,,
39629,Fine Foods - Italian Deli,"218 Long Lane, City of London, United Kingdom",restaurant,London,51.498379,-0.08407,11,http://tour-pedia.org/api/getReviewsByPlaceId?placeId=39629,8,http://tour-pedia.org/api/getPlaceDetails?id=39629,,
39847,Pret A Manger,"57 Great Eastern St, London, United Kingdom",restaurant,London,51.524629,-0.081012,11,http://tour-pedia.org/api/getReviewsByPlaceId?placeId=39847,8,http://tour-pedia.org/api/getPlaceDetails?id=39847,,
39878,Café Rouge,"38-39 Hampstead High Street, London, United Kingdom",restaurant,London,51.556303,-0.177649,11,http://tour-pedia.org/api/getReviewsByPlaceId?placeId=39878,8,http://tour-pedia.org/api/getPlaceDetails?id=39878,,
39930,Palmers Restaurant,"238 Roman Road, London, United Kingdom",restaurant,London,51.530163,-0.042737,11,http://tour-pedia.org/api/getReviewsByPlaceId?placeId=39930,8,http://tour-pedia.org/api/getPlaceDetails?id=39930,,
40277,Delisserie,"1-4, Belmont Parade, Finchley Road, London, United Kingdom",restaurant,London,51.584417,-0.199722,11,http://tour-pedia.org/api/getReviewsByPlaceId?placeId=40277,8,http://tour-pedia.org/api/getPlaceDetails?id=40277,,
40527,Sushi Bar Makoto,"4 Devonshire Road, London, United Kingdom",restaurant,London,51.491829,-0.255748,11,http://tour-pedia.org/api/getReviewsByPlaceId?placeId=40527,8,http://tour-pedia.org/api/getPlaceDetails?id=40527,,
40685,Vijay's Chawalla,"268-270 Green Street, London, United Kingdom",restaurant,London,51.538486,0.033246,11,http://tour-pedia.org/api/getReviewsByPlaceId?placeId=40685,8,http://tour-pedia.org/api/getPlaceDetails?id=40685,,
41872,Chimichanga,"Unit 2b Chaplin Sq, Gt North Leisure Park, Finchley, United Kingdom",restaurant,London,51.603809,-0.173213,11,http://tour-pedia.org/api/getReviewsByPlaceId?placeId=41872,8,http://tour-pedia.org/api/getPlaceDetails?id=41872,,
41970,The Old Fire Station,"55 High Street, Brentford, United Kingdom",restaurant,London,51.484787,-0.30195,11,http://tour-pedia.org/api/getReviewsByPlaceId?placeId=41970,8,http://tour-pedia.org/api/getPlaceDetails?id=41970,,
42573,The Glamorgan,"81 Cherry Orchard Road, Croydon, United Kingdom",restaurant,London,51.378418,-0.09018,11,http://tour-pedia.org/api/getReviewsByPlaceId?placeId=42573,8,http://tour-pedia.org/api/getPlaceDetails?id=42573,,
43483,The Clay Oven,"13 The Mall, London, United Kingdom",restaurant,London,51.514181,-0.300069,11,http://tour-pedia.org/api/getReviewsByPlaceId?placeId=43483,8,http://tour-pedia.org/api/getPlaceDetails?id=43483,,
43486,The Empress,"141 Leman Street, London, United Kingdom",restaurant,London,51.511336,-0.06852,11,http://tour-pedia.org/api/getReviewsByPlaceId?placeId=43486,8,http://tour-pedia.org/api/getPlaceDetails?id=43486,,
43514,Frankie & Benny's,"Unit 3, Leisure Valley Park, Purley Way, Croydon, United Kingdom",restaurant,London,51.378292,-0.124255,11,http://tour-pedia.org/api/getReviewsByPlaceId?placeId=43514,8,http://tour-pedia.org/api/getPlaceDetails?id=43514,,
43572,The Clock House,"69 High Street, Town Centre, Teddington, United Kingdom",restaurant,London,51.427314,-0.331143,11,http://tour-pedia.org/api/getReviewsByPlaceId?placeId=43572,8,http://tour-pedia.org/api/getPlaceDetails?id=43572,,
43661,Rocket,"2 Churchill Place, London, United Kingdom",restaurant,London,51.504254,-0.014623,11,http://tour-pedia.org/api/getReviewsByPlaceId?placeId=43661,8,http://tour-pedia.org/api/getPlaceDetails?id=43661,,
43947,Il Bacio,"178 - 184 Blackstock Road, Highbury, London, United Kingdom",restaurant,London,51.559755,-0.09878,11,http://tour-pedia.org/api/getReviewsByPlaceId?placeId=43947,8,http://tour-pedia.org/api/getPlaceDetails?id=43947,,
44240,Cah-Chi,"394 Garratt Lane, London, United Kingdom",restaurant,London,51.440888,-0.187088,11,http://tour-pedia.org/api/getReviewsByPlaceId?placeId=44240,8,http://tour-pedia.org/api/getPlaceDetails?id=44240,,
44495,Cock Tavern,"360 North End Road, London, Fulham, United Kingdom",restaurant,London,51.481261,-0.199374,11,http://tour-pedia.org/api/getReviewsByPlaceId?placeId=44495,8,http://tour-pedia.org/api/getPlaceDetails?id=44495,,
44882,Caffe Moka,"243 Balham High Road, London, United Kingdom",restaurant,London,51.437355,-0.157097,11,http://tour-pedia.org/api/getReviewsByPlaceId?placeId=44882,8,http://tour-pedia.org/api/getPlaceDetails?id=44882,,
44943,Poem Bar & Grill,"94 Boundary Road, St. John's Wood, London, United Kingdom",restaurant,London,51.537877,-0.184897,11,http://tour-pedia.org/api/getReviewsByPlaceId?placeId=44943,8,http://tour-pedia.org/api/getPlaceDetails?id=44943,,
45017,Pizaza,"53 Brent Street, London, United Kingdom",restaurant,London,51.585796,-0.220089,11,http://tour-pedia.org/api/getReviewsByPlaceId?placeId=45017,8,http://tour-pedia.org/api/getPlaceDetails?id=45017,,
45164,Kafeinn,"670 Fulham Road, London, United Kingdom",restaurant,London,51.475453,-0.206226,11,http://tour-pedia.org/api/getReviewsByPlaceId?placeId=45164,8,http://tour-pedia.org/api/getPlaceDetails?id=45164,,
45458,Si Mangia,"32 Forest Hill Road, London, United Kingdom",restaurant,London,51.453477,-0.061997,11,http://tour-pedia.org/api/getReviewsByPlaceId?placeId=45458,8,http://tour-pedia.org/api/getPlaceDetails?id=45458,,
46771,Oriental Star,"134 Finchley Road, London, United Kingdom",restaurant,London,51.547916,-0.180249,11,http://tour-pedia.org/api/getReviewsByPlaceId?placeId=46771,8,http://tour-pedia.org/api/getPlaceDetails?id=46771,,
46892,Plenty,"135 Station Road, Hampton, United Kingdom",restaurant,London,51.415815,-0.371714,11,http://tour-pedia.org/api/getReviewsByPlaceId?placeId=46892,8,http://tour-pedia.org/api/getPlaceDetails?id=46892,,
46930,Chennai Dosa,"33 Upper Tooting Road, Tooting, United Kingdom",restaurant,London,51.434862,-0.161102,11,http://tour-pedia.org/api/getReviewsByPlaceId?placeId=46930,8,http://tour-pedia.org/api/getPlaceDetails?id=46930,,
47065,Laveli Bakery,"5 Churchfield Road, London, United Kingdom",restaurant,London,51.508792,-0.263372,11,http://tour-pedia.org/api/getReviewsByPlaceId?placeId=47065,8,http://tour-pedia.org/api/getPlaceDetails?id=47065,,
47243,Whole Meal,"1 Shrubbery Road, London, United Kingdom",restaurant,London,51.430433,-0.129331,11,http://tour-pedia.org/api/getReviewsByPlaceId?placeId=47243,8,http://tour-pedia.org/api/getPlaceDetails?id=47243,,
47992,Dalchini Hakka,"147 Arthur Road, London, United Kingdom",restaurant,London,51.434818,-0.199226,11,http://tour-pedia.org/api/getReviewsByPlaceId?placeId=47992,8,http://tour-pedia.org/api/getPlaceDetails?id=47992,,
37010,Cafe Brera,"Unit 38E, Jubilee Place",restaurant,London,51.503257165017,-0.018310829997063,11,http://tour-pedia.org/api/getReviewsByPlaceId?placeId=37010,8,http://tour-pedia.org/api/getPlaceDetails?id=37010,4adc9331f964a520722d21e3,Coffee Shop
38707,Alfresco,1327 High Road,restaurant,London,51.631789,-0.175669,11,http://tour-pedia.org/api/getReviewsByPlaceId?placeId=38707,8,http://tour-pedia.org/api/getPlaceDetails?id=38707,4b520b9ef964a520c06327e3,Italian Restaurant
40506,Itsu,"100 Notting Hill Gate, London, United Kingdom",restaurant,London,51.509153,-0.197833,11,http://tour-pedia.org/api/getReviewsByPlaceId?placeId=40506,8,http://tour-pedia.org/api/getPlaceDetails?id=40506,,
42537,Bagatti's,"56-58 South End, Croydon, United Kingdom",restaurant,London,51.365617,-0.099189,11,http://tour-pedia.org/api/getReviewsByPlaceId?placeId=42537,8,http://tour-pedia.org/api/getPlaceDetails?id=42537,,
50291,Speedy's Cafe,187 North Gower St,restaurant,London,51.526163347791,-0.13648003302469,11,http://tour-pedia.org/api/getReviewsByPlaceId?placeId=50291,8,http://tour-pedia.org/api/getPlaceDetails?id=50291,4caaeb7576d3a093ef79276b,Café
53104,Spur Steak and Grill,The O2,restaurant,London,51.502465104754,0.0041627883911133,11,http://tour-pedia.org/api/getReviewsByPlaceId?placeId=53104,8,http://tour-pedia.org/api/getPlaceDetails?id=53104,4d3720410a0b721e421a989b,Steakhouse
63805,Adulis Oval,"44-46 Brixton Road, London, United Kingdom",restaurant,London,51.479479,-0.111877,11,http://tour-pedia.org/api/getReviewsByPlaceId?placeId=63805,8,http://tour-pedia.org/api/getPlaceDetails?id=63805,,
68921,Translate at The Dictionary,12-14 Kingsland Rd,restaurant,London,51.527516115715,-0.077875856445759,11,http://tour-pedia.org/api/getReviewsByPlaceId?placeId=68921,8,http://tour-pedia.org/api/getPlaceDetails?id=68921,4fd27b31e4b0abd6647bcc3d,Bar
80277,Harris & Hoole,5 The Broadway,restaurant,London,51.513659458134,-0.30324138099463,11,http://tour-pedia.org/api/getReviewsByPlaceId?placeId=80277,8,http://tour-pedia.org/api/getPlaceDetails?id=80277,51e4fbce498e5bd40036b12a,Coffee Shop
80970,Mamacita,202 West End Ln,restaurant,London,51.549908441675,-0.19149655390645,11,http://tour-pedia.org/api/getReviewsByPlaceId?placeId=80970,8,http://tour-pedia.org/api/getPlaceDetails?id=80970,520818f611d27aedda3f65e1,Mexican Restaurant
36853,The Telegraph,Telegraph Rd,attraction,London,51.448778,-0.226563,11,http://tour-pedia.org/api/getReviewsByPlaceId?placeId=36853,8,http://tour-pedia.org/api/getPlaceDetails?id=36853,,
37030,The Prince Of Wales,48 Cleaver Sq,attraction,London,51.488224326323,-0.10909616947174,11,http://tour-pedia.org/api/getReviewsByPlaceId?placeId=37030,8,http://tour-pedia.org/api/getPlaceDetails?id=37030,,
36276,The Gowlett,62 Gowlett Rd,attraction,London,51.463845,-0.070504546165466,11,http://tour-pedia.org/api/getReviewsByPlaceId?placeId=36276,8,http://tour-pedia.org/api/getPlaceDetails?id=36276,,
37309,Cumberland Arms,29 North End Rd.,attraction,London,51.494415629444,-0.21038220287967,11,http://tour-pedia.org/api/getReviewsByPlaceId?placeId=37309,8,http://tour-pedia.org/api/getPlaceDetails?id=37309,4ae9f4c5f964a520fab721e3,Bar
37732,Vortex Jazz Club,11 Gillett Street,attraction,London,51.548822,-0.076375,11,http://tour-pedia.org/api/getReviewsByPlaceId?placeId=37732,8,http://tour-pedia.org/api/getPlaceDetails?id=37732,4b08016df964a520320223e3,Jazz Club
39732,Camden Arts Centre,Arkwright Road,attraction,London,51.551014,-0.183676,11,http://tour-pedia.org/api/getReviewsByPlaceId?placeId=39732,8,http://tour-pedia.org/api/getPlaceDetails?id=39732,,
40792,Berties Wine Bar,2 Hartfield Rd.,attraction,London,51.42048598467,-0.20623063983223,11,http://tour-pedia.org/api/getReviewsByPlaceId?placeId=40792,8,http://tour-pedia.org/api/getPlaceDetails?id=40792,4b9e3596f964a52001d236e3,Bar
42196,The Goldsmith,96 Southwark Bridge Rd.,attraction,London,51.501826,-0.097803128571429,11,http://tour-pedia.org/api/getReviewsByPlaceId?placeId=42196,8,http://tour-pedia.org/api/getPlaceDetails?id=42196,4bc1fc10f8219c74240ab410,Pub
42564,The Black Lion,2 South Black Lion Lane,attraction,London,51.490209088503,-0.24181731446847,11,http://tour-pedia.org/api/getReviewsByPlaceId?placeId=42564,8,http://tour-pedia.org/api/getPlaceDetails?id=42564,4bc9d2870687ef3bbd84dacc,Pub
43142,Lyric Hammersmith,Lyric Sq.,attraction,London,51.493201089033,-0.22579908370972,11,http://tour-pedia.org/api/getReviewsByPlaceId?placeId=43142,8,http://tour-pedia.org/api/getPlaceDetails?id=43142,4bd48d456f6495217c956dec,Theater
44316,The Railway,6-22 Greyhound lane,attraction,London,51.418355247298,-0.13487337679623,11,http://tour-pedia.org/api/getReviewsByPlaceId?placeId=44316,8,http://tour-pedia.org/api/getPlaceDetails?id=44316,4bf0ebc73a15d13af00e3f9f,Pub
61807,Stormbird,25 Church St.,attraction,London,51.473963449025,-0.09044555209983,11,http://tour-pedia.org/api/getReviewsByPlaceId?placeId=61807,8,http://tour-pedia.org/api/getPlaceDetails?id=61807,4e91fa310aafb4070c82f04c,Bar
41343,Westbury Hotel,"London,   United Kingdom    22-24 Collingham Place, Kensington and Chelsea, London, SW5 0PZ",accommodation,London,51.493614403112,-0.18983468413353,11,http://tour-pedia.org/api/getReviewsByPlaceId?placeId=41343,8,http://tour-pedia.org/api/getPlaceDetails?id=41343,,
41830,Travel Joy Hostels,"London,   United Kingdom    111 Grosvenor Road, Westminster, London, SW1V 3LG",accommodation,London,51.485499,-0.14132,11,http://tour-pedia.org/api/getReviewsByPlaceId?placeId=41830,8,http://tour-pedia.org/api/getPlaceDetails?id=41830,,
62073,"The Bentley London, a Hilton Hotel","London,   United Kingdom    27-33 Harrington Gardens, Kensington and Chelsea, London, SW7 4JX",accommodation,London,51.492912184441,-0.18426775932312,11,http://tour-pedia.org/api/getReviewsByPlaceId?placeId=62073,8,http://tour-pedia.org/api/getPlaceDetails?id=62073,,
36539,Holiday Inn,Carburton St,accommodation,London,51.522404,-0.142622,11,http://tour-pedia.org/api/getReviewsByPlaceId?placeId=36539,8,http://tour-pedia.org/api/getPlaceDetails?id=36539,4ad2186ef964a5205edf20e3,Hotel
45362,Premier Inn,1-6 Ritz Parade,accommodation,London,51.52898437161,-0.29094457626343,11,http://tour-pedia.org/api/getReviewsByPlaceId?placeId=45362,8,http://tour-pedia.org/api/getPlaceDetails?id=45362,,
36268,Shepherd's Bush Station,"Uxbridge Road, London, United Kingdom",poi,London,51.505015,-0.217662,12,http://tour-pedia.org/api/getReviewsByPlaceId?placeId=36268,8,http://tour-pedia.org/api/getPlaceDetails?id=36268,,
49749,Cafe Rouge,"85 Strand-On-The-Green, London, United Kingdom",restaurant,London,51.487332,-0.28468,12,http://tour-pedia.org/api/getReviewsByPlaceId?placeId=49749,8,http://tour-pedia.org/api/getPlaceDetails?id=49749,,
51286,Dar Marrakesh,"422 Edgware Road, London, United Kingdom",restaurant,London,51.522723,-0.173807,12,http://tour-pedia.org/api/getReviewsByPlaceId?placeId=51286,8,http://tour-pedia.org/api/getPlaceDetails?id=51286,,
56473,Italina,"385 Cambridge Heath Rd, Bethnal Green, United Kingdom",restaurant,London,51.530321,-0.056367,12,http://tour-pedia.org/api/getReviewsByPlaceId?placeId=56473,8,http://tour-pedia.org/api/getPlaceDetails?id=56473,,
65236,Le Pont de la Tour,"36D Shad Thames, London, United Kingdom",restaurant,London,51.503478,-0.073628,12,http://tour-pedia.org/api/getReviewsByPlaceId?placeId=65236,8,http://tour-pedia.org/api/getPlaceDetails?id=65236,,
66916,Byron,"East Pavilion, Greenwich Pier - Masthouse Pier, London, United Kingdom",restaurant,London,51.483462,-0.009287,12,http://tour-pedia.org/api/getReviewsByPlaceId?placeId=66916,8,http://tour-pedia.org/api/getPlaceDetails?id=66916,,
67816,Le Relais de Venise l'Entrecôte,"18-20 Mackenzie Walk, London, United Kingdom",restaurant,London,51.504314,-0.022435,12,http://tour-pedia.org/api/getReviewsByPlaceId?placeId=67816,8,http://tour-pedia.org/api/getPlaceDetails?id=67816,,
70197,Ruby Violet,"118 Fortess Road, London, United Kingdom",restaurant,London,51.555579,-0.139158,12,http://tour-pedia.org/api/getReviewsByPlaceId?placeId=70197,8,http://tour-pedia.org/api/getPlaceDetails?id=70197,,
71442,Assiette Anglaise,"489 Liverpool Road, London, United Kingdom",restaurant,London,51.54817,-0.109977,12,http://tour-pedia.org/api/getReviewsByPlaceId?placeId=71442,8,http://tour-pedia.org/api/getPlaceDetails?id=71442,,
76544,La Farola,"101 Upper Street, London, United Kingdom",restaurant,London,51.537618,-0.102988,12,http://tour-pedia.org/api/getReviewsByPlaceId?placeId=76544,8,http://tour-pedia.org/api/getPlaceDetails?id=76544,,
41765,The Arab Boy,"289 Upper Richmond Road, London, United Kingdom",restaurant,London,51.462839,-0.226676,12,http://tour-pedia.org/api/getReviewsByPlaceId?placeId=41765,8,http://tour-pedia.org/api/getPlaceDetails?id=41765,,
36321,Franklins,"157 Lordship Lane, London, United Kingdom",restaurant,London,51.455994,-0.076084,12,http://tour-pedia.org/api/getReviewsByPlaceId?placeId=36321,8,http://tour-pedia.org/api/getPlaceDetails?id=36321,,
36683,The Cricketers,"The Green, Town Centre, United Kingdom",restaurant,London,51.460466,-0.306258,12,http://tour-pedia.org/api/getReviewsByPlaceId?placeId=36683,8,http://tour-pedia.org/api/getPlaceDetails?id=36683,,
37271,Hot Pink Grill,"86 The Broadway, London, United Kingdom",restaurant,London,51.419448,-0.200988,12,http://tour-pedia.org/api/getReviewsByPlaceId?placeId=37271,8,http://tour-pedia.org/api/getPlaceDetails?id=37271,,
37479,Frizzante Ltd,"1 Goldsmith's Row, London, United Kingdom",restaurant,London,51.531623,-0.066568,12,http://tour-pedia.org/api/getReviewsByPlaceId?placeId=37479,8,http://tour-pedia.org/api/getPlaceDetails?id=37479,,
37761,La Buvette Ltd,"6 Church Walk, Richmond, United Kingdom",restaurant,London,51.460312,-0.303409,12,http://tour-pedia.org/api/getReviewsByPlaceId?placeId=37761,8,http://tour-pedia.org/api/getPlaceDetails?id=37761,,
38224,19 Numara Bos Cirrik,"34 Stoke Newington Road, London, United Kingdom",restaurant,London,51.551569,-0.074919,12,http://tour-pedia.org/api/getReviewsByPlaceId?placeId=38224,8,http://tour-pedia.org/api/getPlaceDetails?id=38224,,
38255,O's Thai Café,"10 Topsfield Road, City of London, United Kingdom",restaurant,London,51.580006,-0.123749,12,http://tour-pedia.org/api/getReviewsByPlaceId?placeId=38255,8,http://tour-pedia.org/api/getPlaceDetails?id=38255,,
39027,Victoria Stakes,"1 Muswell Hill, London, United Kingdom",restaurant,London,51.587347,-0.134035,12,http://tour-pedia.org/api/getReviewsByPlaceId?placeId=39027,8,http://tour-pedia.org/api/getPlaceDetails?id=39027,,
40421,The Blacksmith's Arms,"257 Rotherhithe Street, London, United Kingdom",restaurant,London,51.505155,-0.034006,12,http://tour-pedia.org/api/getReviewsByPlaceId?placeId=40421,8,http://tour-pedia.org/api/getPlaceDetails?id=40421,,
40456,Costa Coffee,"27 The Quadrant, London, United Kingdom",restaurant,London,51.46307,-0.30211,12,http://tour-pedia.org/api/getReviewsByPlaceId?placeId=40456,8,http://tour-pedia.org/api/getPlaceDetails?id=40456,,
40716,Osteria Del Portico,"7A The Green, London, United Kingdom",restaurant,London,51.511014,-0.30518,12,http://tour-pedia.org/api/getReviewsByPlaceId?placeId=40716,8,http://tour-pedia.org/api/getPlaceDetails?id=40716,,
43020,Cafe Rouge,"30 Clifton Road, London, United Kingdom",restaurant,London,51.525489,-0.179874,12,http://tour-pedia.org/api/getReviewsByPlaceId?placeId=43020,8,http://tour-pedia.org/api/getPlaceDetails?id=43020,,
43748,Bridge House,"2 High Street, London, United Kingdom",restaurant,London,51.418118,-0.060365,12,http://tour-pedia.org/api/getReviewsByPlaceId?placeId=43748,8,http://tour-pedia.org/api/getPlaceDetails?id=43748,,
44770,Gelato Mio,"138 Saint John's Wood High Street, London, United Kingdom",restaurant,London,51.533881,-0.170959,12,http://tour-pedia.org/api/getReviewsByPlaceId?placeId=44770,8,http://tour-pedia.org/api/getPlaceDetails?id=44770,,
45049,The Lord Nelson,"1 Manchester Road, London, United Kingdom",restaurant,London,51.487324,-0.013205,12,http://tour-pedia.org/api/getReviewsByPlaceId?placeId=45049,8,http://tour-pedia.org/api/getPlaceDetails?id=45049,,
38537,Chapters,Montpelier vale,restaurant,London,51.467600943562,0.0082143959912019,12,http://tour-pedia.org/api/getReviewsByPlaceId?placeId=38537,8,http://tour-pedia.org/api/getPlaceDetails?id=38537,4b49e30af964a520647526e3,Restaurant
38813,Megan's,,restaurant,London,51.478809,-0.18812477588654,12,http://tour-pedia.org/api/getReviewsByPlaceId?placeId=38813,8,http://tour-pedia.org/api/getPlaceDetails?id=38813,,
39309,Jai Krishna,"161 Stroud Green Road, London, United Kingdom",restaurant,London,51.570105,-0.114199,12,http://tour-pedia.org/api/getReviewsByPlaceId?placeId=39309,8,http://tour-pedia.org/api/getPlaceDetails?id=39309,,
39863,eat TOKYO,6-24 Hillgate St,restaurant,London,51.508073723538,-0.19757687671581,12,http://tour-pedia.org/api/getReviewsByPlaceId?placeId=39863,8,http://tour-pedia.org/api/getPlaceDetails?id=39863,4b7c5068f964a520ba8b2fe3,Sushi Restaurant
