name,category,location,lat,lng,polarity,numReviews,monthly_reviews,review_variance
Nordic Bakery,restaurant,London,51.511381,-0.136756,8,69,"[5, 5, 8, 5, 7, 7, 5, 7, 7, 5, 4, 4]",1.6875
Big Easy BBQ & Crabshack,restaurant,London,51.485269095452,-0.17413292149062,7,67,"[4, 8, 7, 6, 6, 7, 6, 5, 5, 4, 7, 2]",2.576388888888889
Hakkasan,restaurant,London,51.517188,-0.131664,8,65,"[5, 6, 3, 4, 6, 5, 7, 8, 7, 7, 3, 4]",2.576388888888889
Electric Diner,restaurant,London,51.515591797495,-0.20485962385568,7,62,"[6, 6, 5, 8, 5, 5, 2, 5, 7, 6, 2, 5]",2.805555555555556
Cây Tre,restaurant,London,51.526832,-0.081747,7,62,"[6, 4, 5, 6, 6, 5, 4, 9, 3, 4, 7, 3]",2.8055555555555554
Bar Boulud,restaurant,London,51.502021,-0.160308,7,62,"[1, 6, 4, 5, 6, 5, 6, 5, 5, 5, 8, 6]",2.472222222222222
TGI Friday's,restaurant,London,51.510233762094,-0.13253813427823,6,62,"[5, 6, 4, 5, 7, 2, 8, 6, 7, 3, 4, 5]",2.805555555555556
Byron,restaurant,London,51.508676,-0.223243,6,62,"[5, 4, 6, 4, 2, 5, 7, 4, 6, 6, 8, 5]",2.3055555555555554
Kopapa Cafe & Restaurant,restaurant,London,51.51354588697,-0.12715950608253,7,60,"[6, 3, 6, 7, 5, 4, 5, 4, 6, 6, 4, 4]",1.3333333333333333
The Counter Cafe,restaurant,London,51.540083,-0.021052,7,57,"[3, 6, 6, 5, 5, 7, 3, 6, 7, 2, 3, 4]",2.6875
Byron,restaurant,London,51.512014353665,-0.12069940567017,6,57,"[2, 3, 6, 7, 7, 4, 5, 4, 4, 7, 4, 4]",2.5208333333333335
CASK Pub And Kitchen,restaurant,London,51.491083526201,-0.13738676905632,7,56,"[2, 3, 5, 4, 2, 5, 6, 6, 6, 6, 7, 4]",2.555555555555556
The Diner,restaurant,London,51.54072,-0.14474,6,56,"[2, 4, 5, 6, 4, 5, 5, 5, 7, 3, 5, 5]",1.5555555555555554
Grind Coffee Bar,restaurant,London,51.543744,-0.00888,8,55,"[4, 3, 3, 6, 6, 6, 4, 6, 4, 3, 7, 3]",2.076388888888889
The Hummingbird Bakery - Notting Hill,restaurant,London,51.514055,-0.20381,8,53,"[5, 3, 4, 6, 2, 5, 4, 3, 7, 5, 4, 5]",1.7430555555555556
Dove Freehouse & Kitchen,attraction,London,51.536282,-0.061858,6,53,"[4, 4, 7, 5, 3, 6, 3, 6, 4, 3, 5, 3]",1.7430555555555556
Prince Charles Cinema,attraction,London,51.511393,-0.13021,6,52,"[4, 3, 4, 5, 4, 2, 5, 6, 4, 5, 4, 6]",1.222222222222222
The Parlour Bar,restaurant,London,51.50499,-0.018772,7,51,"[4, 5, 3, 3, 7, 3, 6, 4, 6, 4, 1, 5]",2.5208333333333335
Byron,restaurant,London,51.494792,-0.182537,8,50,"[5, 2, 5, 5, 3, 6, 2, 4, 3, 4, 4, 7]",2.138888888888889
The Providores and Tapa Room Restaurant,restaurant,London,51.518962,-0.151718,7,50,"[5, 4, 2, 2, 5, 3, 3, 4, 6, 8, 4, 4]",2.638888888888889
BA Galleries Club Lounge,poi,London,51.469514856571,-0.46061038970947,6,49,"[3, 2, 4, 7, 5, 6, 4, 1, 3, 4, 4, 6]",2.7430555555555554
The Southampton Arms,attraction,London,51.556152,-0.14612,7,48,"[4, 3, 6, 4, 4, 4, 5, 4, 3, 4, 6, 1]",1.6666666666666667
Brick Lane,poi,London,51.52129457263,-0.071775913238525,6,48,"[2, 2, 6, 5, 4, 3, 1, 5, 5, 5, 6, 4]",2.5
The Crown & Two Chairmen,attraction,London,51.513910609654,-0.13252258300781,7,47,"[3, 3, 3, 2, 4, 6, 4, 6, 3, 6, 3, 4]",1.7430555555555554
Mien Tay,restaurant,London,51.530409,-0.077141,7,46,"[5, 5, 4, 4, 4, 2, 2, 6, 4, 5, 4, 1]",1.9722222222222223
Shoryu Ramen,restaurant,London,51.508358,-0.133765,6,46,"[4, 4, 3, 4, 2, 3, 3, 6, 5, 5, 4, 3]",1.138888888888889
Le Pain Quotidien,restaurant,London,51.514458,-0.139199,7,45,"[2, 2, 3, 4, 6, 5, 3, 6, 5, 3, 3, 3]",1.8541666666666667
Heathrow Terminal 5 Tube Station,poi,London,51.471305,-0.487825,6,45,"[5, 4, 4, 5, 5, 3, 1, 5, 4, 5, 3, 1]",2.0208333333333335
The Diner,restaurant,London,51.536738,-0.10147,6,45,"[4, 3, 3, 3, 5, 5, 4, 2, 6, 6, 2, 2]",2.0208333333333335
The Princess of Shoreditch,restaurant,London,51.525363,-0.083759,8,44,"[1, 6, 2, 4, 2, 3, 6, 5, 5, 5, 3, 2]",2.7222222222222228
Skylon,restaurant,London,51.50572,-0.116651,8,44,"[4, 5, 5, 2, 3, 1, 4, 6, 3, 3, 4, 4]",1.722222222222222
All Star Lanes,restaurant,London,51.521873,-0.071838,7,44,"[1, 5, 2, 2, 4, 5, 5, 4, 5, 4, 4, 3]",1.722222222222222
Le Pain Quotidien,restaurant,London,51.508824,-0.196961,7,44,"[5, 5, 4, 3, 3, 2, 5, 6, 3, 2, 3, 3]",1.5555555555555554
Lounge Lover,attraction,London,51.524242584634,-0.074417183244191,7,44,"[1, 2, 4, 4, 3, 5, 3, 3, 7, 4, 4, 4]",2.055555555555556
Elk in the Woods,restaurant,London,51.534982,-0.103912,6,44,"[4, 3, 2, 2, 4, 4, 2, 6, 6, 3, 4, 4]",1.7222222222222223
The World's End,attraction,London,51.539203873004,-0.14218006728,6,44,"[1, 5, 4, 3, 3, 3, 7, 1, 4, 4, 5, 4]",2.555555555555556
Haché,restaurant,London,51.539509522636,-0.1442561030768,8,43,"[6, 1, 4, 6, 5, 3, 5, 3, 2, 3, 1, 4]",2.743055555555556
Bea's of Bloomsbury Cakes,restaurant,London,51.520922,-0.116078,8,43,"[2, 5, 1, 6, 2, 3, 3, 4, 5, 6, 4, 2]",2.576388888888889
Fix 126,restaurant,London,51.526123,-0.080209,8,43,"[6, 4, 2, 1, 5, 3, 4, 4, 4, 4, 5, 1]",2.2430555555555554
Flat Iron,restaurant,London,51.512158,-0.138101,7,43,"[5, 4, 4, 6, 2, 6, 2, 5, 2, 4, 2, 1]",2.743055555555556
The May Fair Bar,restaurant,London,51.508089,-0.143887,7,43,"[5, 2, 5, 3, 4, 2, 6, 4, 4, 5, 3, 0]",2.576388888888889
The Landmark London,attraction,London,51.521655060968,-0.16279935836792,7,43,"[2, 2, 7, 2, 5, 4, 5, 4, 4, 1, 4, 3]",2.576388888888889
The Craft Beer Co.,attraction,London,51.521251180323,-0.10974258184433,7,43,"[2, 3, 4, 2, 5, 3, 7, 5, 5, 3, 3, 1]",2.576388888888889
Ye Olde Cheshire Cheese,attraction,London,51.51435054539,-0.10720345675222,6,43,"[4, 6, 2, 3, 5, 5, 3, 2, 3, 5, 3, 2]",1.7430555555555556
O'Neill's,attraction,London,51.511283872031,-0.132039,6,43,"[5, 1, 5, 5, 4, 4, 4, 5, 4, 3, 0, 3]",2.409722222222222
Old Spitalfields Market,attraction,London,51.519665663822,-0.075423717498779,6,43,"[1, 2, 4, 5, 4, 2, 4, 6, 4, 4, 5, 2]",2.076388888888889
Viet Grill,restaurant,London,51.529668,-0.077348,7,42,"[4, 3, 3, 2, 7, 5, 4, 4, 2, 3, 2, 3]",1.9166666666666667
The Ship,attraction,London,51.463737,-0.188002,7,42,"[4, 1, 4, 5, 3, 7, 4, 3, 3, 3, 3, 2]",2.0833333333333335
Zeitgeist @ The Jolly Gardeners,restaurant,London,51.491297290951,-0.11823177337646,6,42,"[2, 1, 3, 2, 5, 3, 4, 4, 3, 5, 4, 6]",1.9166666666666667
Shaka Zulu,restaurant,London,51.541576,-0.146363,6,42,"[3, 2, 3, 1, 2, 3, 4, 3, 5, 6, 6, 4]",2.25
The Lexington,attraction,London,51.531720879087,-0.11125802993774,6,42,"[4, 6, 5, 2, 5, 3, 1, 3, 2, 5, 4, 2]",2.25
Coffee Plant,restaurant,London,51.515683,-0.204848,8,41,"[5, 3, 4, 3, 4, 4, 4, 2, 5, 3, 3, 1]",1.2430555555555556
Jak's,restaurant,London,51.494503,-0.167141,7,41,"[3, 2, 7, 4, 3, 4, 5, 3, 3, 3, 4, 0]",2.576388888888889
Vauxhall Railway Station (VXH),poi,London,51.48584597674,-0.12381076812744,6,41,"[5, 3, 4, 1, 5, 1, 4, 4, 6, 2, 3, 3]",2.243055555555555
Cafe East,restaurant,London,51.496381,-0.041728,7,40,"[4, 3, 3, 6, 4, 3, 4, 0, 2, 4, 4, 3]",1.8888888888888886
Exmouth Market,restaurant,London,51.52558,-0.109799,7,40,"[2, 1, 4, 3, 3, 3, 4, 2, 6, 4, 6, 2]",2.2222222222222223
Kahaila,restaurant,London,51.52382,-0.071697,7,40,"[1, 5, 4, 4, 3, 5, 4, 5, 3, 2, 1, 3]",1.888888888888889
Byron,restaurant,London,51.505024,-0.020596,7,40,"[3, 2, 2, 2, 4, 2, 7, 5, 2, 3, 5, 3]",2.388888888888889
The Tin Goose (Pub & Kitchen),restaurant,London,51.473233072159,-0.45036244302073,6,40,"[3, 3, 3, 4, 0, 3, 5, 4, 4, 4, 4, 3]",1.3888888888888886
Prospect Of Whitby,restaurant,London,51.507192,-0.051056,6,40,"[3, 4, 4, 2, 4, 2, 2, 2, 7, 6, 2, 2]",2.722222222222222
Royal China Club,restaurant,London,51.518388,-0.155657,6,40,"[2, 5, 3, 3, 5, 4, 5, 1, 3, 4, 2, 3]",1.5555555555555554
The Alice House,attraction,London,51.550951256127,-0.19149374515935,6,40,"[3, 4, 3, 3, 5, 2, 3, 6, 5, 3, 3, 0]",2.2222222222222223
Kipferl Ltd,restaurant,London,51.535027,-0.103553,8,39,"[2, 1, 2, 4, 3, 5, 5, 6, 4, 2, 4, 1]",2.5208333333333335
Ca'puccino,restaurant,London,51.506311756219,-0.21968364715576,7,39,"[4, 6, 2, 6, 2, 1, 3, 2, 4, 3, 4, 2]",2.3541666666666665
Wagamama,restaurant,London,51.505974,-0.117768,7,39,"[2, 3, 1, 3, 4, 2, 5, 5, 3, 5, 2, 4]",1.6875
Baltic,restaurant,London,51.503428,-0.104782,7,39,"[4, 3, 4, 2, 3, 2, 2, 4, 5, 4, 5, 1]",1.5208333333333333
Jack's - At The Junction,restaurant,London,51.463991,-0.166533,7,39,"[5, 2, 4, 3, 3, 2, 4, 6, 4, 3, 3, 0]",2.1875
Everyman Screen on the Green,attraction,London,51.536814,-0.103542,7,39,"[2, 1, 5, 5, 4, 2, 4, 3, 5, 4, 2, 2]",1.8541666666666667
Absolutely Starving,restaurant,London,51.505308,-0.085133,6,39,"[3, 2, 5, 6, 3, 2, 3, 2, 4, 3, 3, 3]",1.3541666666666667
The Charles Lamb Pub and Kitchen,restaurant,London,51.531994,-0.101872,8,38,"[3, 3, 4, 4, 4, 1, 4, 6, 3, 3, 1, 2]",1.8055555555555556
Bento Cafe,restaurant,London,51.538669,-0.143239,8,38,"[5, 5, 1, 5, 3, 2, 2, 4, 2, 1, 3, 5]",2.3055555555555554
Horniman Museum & Gardens,attraction,London,51.441304,-0.060596,8,38,"[1, 5, 1, 4, 5, 1, 3, 4, 5, 3, 4, 2]",2.305555555555556
202,restaurant,London,51.514492,-0.200214,7,38,"[1, 2, 4, 3, 3, 3, 4, 7, 3, 4, 3, 1]",2.3055555555555554
Browns Of Brockley,restaurant,London,51.464469,-0.036948,7,38,"[2, 1, 7, 3, 5, 3, 3, 3, 3, 5, 2, 1]",2.8055555555555554
Akari,restaurant,London,51.540467,-0.095877,7,38,"[3, 1, 1, 4, 5, 4, 3, 3, 4, 3, 5, 2]",1.638888888888889
Benugo Bar and Kitchen,restaurant,London,51.506732,-0.114959,7,38,"[2, 0, 5, 5, 2, 2, 2, 5, 4, 5, 2, 4]",2.638888888888889
Walkabout,restaurant,London,51.511212,-0.113624,6,38,"[1, 1, 5, 4, 3, 4, 5, 4, 3, 4, 4, 0]",2.472222222222222
The Booking Office Bar,restaurant,London,51.530102,-0.125962,6,38,"[2, 5, 2, 1, 4, 3, 1, 4, 3, 5, 5, 3]",1.972222222222222
Grosvenor Gardens,attraction,London,51.496332,-0.145058,6,38,"[1, 3, 4, 6, 3, 3, 2, 3, 5, 4, 1, 3]",1.972222222222222
Fix Coffee,restaurant,London,51.523372,-0.093305,9,37,"[5, 4, 4, 1, 1, 2, 3, 3, 5, 4, 4, 1]",2.0763888888888893
The Spaniards Inn,restaurant,London,51.569905,-0.174002,7,37,"[2, 5, 3, 3, 0, 3, 5, 3, 3, 5, 4, 1]",2.243055555555556
The Cinnamon Club,restaurant,London,51.49748,-0.129563,7,37,"[3, 2, 3, 1, 3, 3, 1, 4, 2, 7, 4, 4]",2.4097222222222228
El Paso,restaurant,London,51.526824,-0.080606,7,37,"[2, 5, 3, 4, 4, 4, 3, 0, 2, 4, 4, 2]",1.7430555555555556
The Angelic,restaurant,London,51.534791,-0.107323,7,37,"[2, 3, 3, 6, 4, 4, 1, 3, 3, 4, 2, 2]",1.5763888888888886
Tukdin,restaurant,London,51.513428,-0.179342,7,37,"[3, 6, 5, 2, 3, 4, 3, 1, 1, 2, 2, 5]",2.4097222222222223
South Bank,attraction,London,51.508114762314,-0.10956287384033,7,37,"[1, 1, 3, 2, 3, 3, 4, 6, 2, 5, 5, 2]",2.409722222222222
Purl Cocktail Bar,attraction,London,51.518358630832,-0.15435713327462,7,37,"[4, 6, 2, 3, 4, 2, 5, 4, 2, 2, 3, 0]",2.4097222222222214
Banners Restaurant,restaurant,London,51.580702,-0.124979,6,37,"[2, 2, 3, 3, 5, 2, 6, 1, 2, 3, 3, 5]",2.0763888888888884
Clapham Picturehouse,attraction,London,51.462556,-0.138132,8,36,"[5, 1, 3, 1, 1, 3, 3, 3, 5, 3, 4, 4]",1.8333333333333333
Leon,restaurant,London,51.506552,-0.099553,7,36,"[3, 4, 2, 1, 3, 3, 5, 6, 4, 0, 3, 2]",2.5
Byron,restaurant,London,51.527447139545,-0.081129751551618,7,36,"[1, 2, 3, 4, 4, 1, 6, 3, 4, 2, 3, 3]",1.8333333333333333
JW Steakhouse,restaurant,London,51.509689,-0.155718,7,36,"[2, 2, 2, 3, 4, 2, 1, 2, 6, 3, 5, 4]",2.0
The Fellow,restaurant,London,51.531611,-0.122427,7,36,"[3, 4, 4, 2, 4, 2, 4, 3, 1, 5, 2, 2]",1.3333333333333333
Marquis Cornwallis,attraction,London,51.524282075792,-0.12481500058973,7,36,"[3, 3, 4, 3, 3, 4, 0, 5, 4, 4, 1, 2]",1.8333333333333333
The Greenwich Union,attraction,London,51.476562,-0.009973,7,36,"[2, 2, 1, 6, 6, 2, 2, 3, 5, 3, 2, 2]",2.6666666666666665
Lock Tavern,attraction,London,51.542879104423,-0.14776866719279,7,36,"[4, 2, 3, 4, 6, 4, 3, 1, 2, 3, 2, 2]",1.6666666666666667
BA/bmi International Lounge,poi,London,51.474166212967,-0.45181274414062,6,36,"[0, 3, 2, 3, 5, 5, 3, 3, 2, 5, 3, 2]",2.0
The Windsor Castle,restaurant,London,51.506283,-0.198678,6,36,"[2, 2, 3, 1, 2, 5, 6, 5, 4, 3, 0, 3]",2.8333333333333335
Giraffe Stop,restaurant,London,51.531473,-0.124685,6,36,"[1, 3, 3, 3, 5, 2, 2, 4, 2, 3, 4, 4]",1.1666666666666667
Sophie's Steakhouse and Bar,restaurant,London,51.486788,-0.179341,6,36,"[2, 2, 2, 4, 5, 3, 1, 6, 2, 3, 2, 4]",2.0
O2 Shepherd's Bush Empire,attraction,London,51.503488572807,-0.22417634725571,6,36,"[2, 5, 3, 1, 5, 1, 5, 3, 3, 2, 2, 4]",2.0
Tapped & Packed (TAP Coffee) No. 193,restaurant,London,51.515501953712,-0.13556700288926,8,35,"[1, 3, 3, 2, 3, 4, 2, 4, 5, 4, 3, 1]",1.409722222222222
Hawksmoor Guildhall,restaurant,London,51.515726,-0.090867,8,35,"[3, 2, 0, 4, 5, 4, 4, 2, 4, 3, 2, 2]",1.7430555555555554
The Green Man,attraction,London,51.519251751481,-0.13928174972534,8,35,"[4, 4, 4, 3, 4, 2, 1, 2, 2, 4, 4, 1]",1.409722222222222
Keu Banh Mi Deli,restaurant,London,51.526664,-0.081605,7,35,"[1, 1, 2, 3, 4, 5, 5, 4, 4, 1, 3, 2]",2.076388888888889
Phoenix Palace,restaurant,London,51.52227,-0.158611,7,35,"[1, 1, 4, 4, 4, 3, 3, 4, 3, 4, 3, 1]",1.4097222222222223
Pho Farringdon,restaurant,London,51.521944,-0.101794,7,35,"[4, 0, 3, 4, 2, 3, 2, 5, 3, 4, 2, 3]",1.5763888888888884
Sticky Fingers,restaurant,London,51.499768,-0.197888,7,35,"[0, 3, 4, 5, 2, 2, 5, 5, 1, 2, 3, 3]",2.4097222222222223
Vapiano,restaurant,London,51.505627,-0.097612,7,35,"[1, 1, 0, 6, 2, 3, 4, 5, 3, 3, 4, 3]",2.7430555555555554
BFI Southbank,attraction,London,51.50705,-0.11551,7,35,"[1, 2, 2, 4, 3, 2, 2, 5, 2, 2, 5, 5]",1.909722222222222
Pembury Tavern,attraction,London,51.549377407888,-0.059652328491211,7,35,"[1, 2, 3, 3, 1, 2, 4, 5, 2, 5, 5, 2]",2.0763888888888893
Icebar by Icehotel,attraction,London,51.511236595627,-0.13973881421826,6,35,"[2, 4, 5, 2, 3, 2, 4, 4, 1, 4, 2, 2]",1.4097222222222223
Dream Bags Jaguar Shoes,attraction,London,51.527969819725,-0.077939629554749,6,35,"[1, 3, 1, 5, 2, 4, 4, 3, 5, 2, 1, 4]",2.076388888888889
Big Red,attraction,London,51.557374396089,-0.11948822404431,6,35,"[4, 3, 4, 2, 3, 4, 3, 2, 4, 4, 2, 0]",1.409722222222222
XOYO London,attraction,London,51.525446615805,-0.085962313916443,6,35,"[2, 2, 3, 2, 4, 3, 4, 4, 4, 3, 4, 0]",1.409722222222222
The Natural Kitchen,restaurant,London,51.520955,-0.152085,8,34,"[2, 0, 4, 2, 2, 4, 2, 3, 3, 7, 3, 2]",2.638888888888889
Santore,restaurant,London,51.526262,-0.108677,8,34,"[2, 1, 2, 4, 4, 3, 2, 4, 2, 2, 5, 3]",1.3055555555555556
Artisan,restaurant,London,51.461284,-0.219473,8,34,"[3, 0, 5, 5, 2, 4, 1, 2, 5, 2, 2, 3]",2.472222222222222
Roxy Bar and Screen,attraction,London,51.50271255522,-0.092215724510035,8,34,"[3, 5, 1, 2, 3, 1, 5, 2, 2, 5, 2, 3]",1.972222222222222
Trafalgar Tavern,restaurant,London,51.48456,-0.004293,7,34,"[2, 1, 3, 5, 6, 4, 2, 2, 3, 0, 3, 3]",2.4722222222222228
Hackney Picturehouse,restaurant,London,51.544786991848,-0.055301675852133,7,34,"[4, 0, 3, 4, 1, 3, 4, 1, 1, 3, 6, 4]",2.805555555555556
Searcys Champagne Bar,attraction,London,51.530853223794,-0.12548446655273,7,34,"[3, 4, 5, 3, 3, 3, 4, 0, 4, 1, 3, 1]",1.972222222222222
St Thomas' Hospital,poi,London,51.498828,-0.117844,6,34,"[3, 5, 2, 1, 1, 3, 3, 7, 2, 3, 3, 1]",2.805555555555556
The Avalon,restaurant,London,51.450491,-0.147981,6,34,"[1, 3, 2, 0, 5, 4, 3, 6, 2, 4, 3, 1]",2.8055555555555554
Huxleys Bar & Kitchen,restaurant,London,51.471960887589,-0.48861265182495,6,34,"[2, 4, 3, 5, 1, 2, 3, 5, 0, 4, 4, 1]",2.4722222222222223
Wapping Project,restaurant,London,51.507414,-0.05172,6,34,"[1, 2, 3, 6, 3, 3, 2, 2, 3, 4, 5, 0]",2.472222222222222
benugo,restaurant,London,51.531627,-0.126633,6,34,"[2, 2, 3, 5, 3, 2, 1, 1, 4, 3, 5, 3]",1.638888888888889
Wembley Arena,attraction,London,51.557795,-0.281935,6,34,"[3, 2, 4, 2, 2, 1, 6, 3, 4, 4, 3, 0]",2.305555555555556
St John's,restaurant,London,51.562992,-0.135773,9,33,"[4, 2, 3, 3, 6, 1, 0, 2, 4, 1, 4, 3]",2.5208333333333335
The Anchor & Hope,restaurant,London,51.503443,-0.106574,8,33,"[0, 3, 5, 3, 1, 2, 1, 2, 5, 4, 3, 4]",2.3541666666666665
Wagamama,restaurant,London,51.497356,-0.140161,8,33,"[2, 1, 2, 2, 4, 3, 3, 5, 6, 1, 3, 1]",2.3541666666666665
E&O,restaurant,London,51.515781,-0.205819,8,33,"[1, 6, 4, 4, 2, 1, 2, 3, 1, 5, 1, 3]",2.6875
The Bertie and Boo Coffee Shop,restaurant,London,51.444654,-0.152007,8,33,"[4, 1, 5, 4, 1, 3, 3, 4, 1, 5, 2, 0]",2.6875
Taylor St barista,restaurant,London,51.523735,-0.082884,8,33,"[3, 2, 0, 2, 4, 3, 3, 4, 3, 1, 5, 3]",1.6875
The CoffeeWorks Project,restaurant,London,51.534168,-0.104594,8,33,"[4, 2, 2, 2, 1, 1, 5, 4, 1, 3, 5, 3]",2.0208333333333335
Canteen,restaurant,London,51.519309,-0.156384,7,33,"[1, 2, 1, 3, 2, 5, 2, 4, 4, 2, 3, 4]",1.5208333333333333
Boho Mexica,restaurant,London,51.521159,-0.075589,7,33,"[4, 4, 0, 3, 2, 2, 2, 3, 1, 5, 3, 4]",1.8541666666666667
Cafe Oto,restaurant,London,51.546697017507,-0.074856356834211,7,33,"[2, 2, 2, 1, 3, 4, 4, 2, 4, 6, 3, 0]",2.3541666666666665
Carluccio's,restaurant,London,51.50422819365,-0.020256042480469,7,33,"[2, 1, 1, 2, 2, 4, 6, 1, 3, 5, 3, 3]",2.3541666666666665
The Wet Fish Cafe,restaurant,London,51.551171,-0.191455,7,33,"[3, 4, 5, 0, 3, 4, 0, 2, 3, 3, 4, 2]",2.1875
Cottons Camden,restaurant,London,51.543146,-0.149754,7,33,"[3, 2, 5, 5, 2, 0, 3, 0, 2, 4, 5, 2]",2.8541666666666665
Eurostar Business Premier Lounge,poi,London,51.531440561493,-0.12604236602783,6,33,"[0, 6, 2, 4, 4, 3, 4, 1, 4, 2, 1, 2]",2.6875
Heathrow Express Train - Heathrow [HXX] to Paddington [PAD],poi,London,51.471768,-0.454069,6,33,"[4, 1, 4, 2, 1, 5, 1, 3, 4, 4, 3, 1]",2.0208333333333335
Thomas Cubitt,restaurant,London,51.493706,-0.15083,6,33,"[3, 3, 3, 1, 4, 3, 3, 4, 3, 2, 3, 1]",0.8541666666666666
Balans - Westfield,restaurant,London,51.506492,-0.22044,6,33,"[2, 3, 2, 2, 5, 4, 4, 3, 1, 2, 1, 4]",1.5208333333333333
Empire,attraction,London,51.510779074032,-0.13058066368103,6,33,"[1, 1, 2, 2, 3, 3, 2, 6, 4, 3, 2, 4]",1.8541666666666667
The Refinery Bar,attraction,London,51.505850976548,-0.09961724281311,6,33,"[2, 5, 1, 3, 3, 1, 4, 5, 4, 3, 1, 1]",2.1875
Salt Espresso Lunch & Tea Bar,restaurant,London,51.51508,-0.121647,8,32,"[2, 4, 3, 3, 2, 4, 0, 4, 2, 3, 1, 4]",1.5555555555555556
Lahore Karahi,restaurant,London,51.429626,-0.166179,8,32,"[4, 2, 2, 2, 3, 3, 4, 2, 2, 2, 3, 3]",0.5555555555555557
Sadler's Wells,attraction,London,51.529131444269,-0.10631751449078,8,32,"[2, 2, 1, 4, 6, 0, 2, 4, 4, 2, 2, 3]",2.3888888888888884
The Mall Tavern,attraction,London,51.508562095774,-0.19395698969718,8,32,"[5, 0, 3, 4, 2, 4, 3, 5, 3, 1, 2, 0]",2.7222222222222228
Institute Of Contemporary Arts,restaurant,London,51.506415,-0.130968,7,32,"[3, 2, 2, 3, 1, 4, 3, 4, 2, 3, 3, 2]",0.7222222222222222
Grenadier,restaurant,London,51.501463,-0.155011,7,32,"[3, 0, 3, 5, 2, 0, 2, 3, 3, 6, 2, 3]",2.7222222222222228
Ottolenghi,restaurant,London,51.514822,-0.199408,7,32,"[1, 4, 4, 4, 2, 1, 2, 3, 3, 2, 4, 2]",1.222222222222222
Mandarin Kitchen,restaurant,London,51.510751,-0.186888,7,32,"[4, 3, 2, 2, 3, 3, 2, 2, 2, 5, 3, 1]",1.0555555555555556
ROKA,restaurant,London,51.504655905235,-0.018636984312119,7,32,"[3, 1, 0, 4, 4, 1, 3, 4, 6, 3, 1, 2]",2.722222222222222
Greenwich Picturehouse,attraction,London,51.479305,-0.009975,7,32,"[6, 1, 2, 5, 4, 1, 2, 3, 2, 2, 2, 2]",2.222222222222222
The Stag,attraction,London,51.553380203144,-0.16168355941772,7,32,"[2, 1, 4, 4, 2, 2, 5, 2, 1, 3, 4, 2]",1.5555555555555556
The Betjeman Arms,attraction,London,51.530078994339,-0.12460470199585,7,32,"[2, 3, 3, 4, 2, 3, 3, 3, 1, 4, 1, 3]",0.8888888888888888
Wasabi,restaurant,London,51.503582,-0.113882,6,32,"[1, 3, 6, 5, 2, 3, 1, 1, 4, 2, 2, 2]",2.388888888888889
Wallace & Co,restaurant,London,51.460128,-0.213492,6,32,"[3, 3, 3, 1, 1, 4, 2, 4, 6, 2, 2, 1]",2.0555555555555554
Kerbisher & Malt - Fish and Chips,restaurant,London,51.497463,-0.222729,8,31,"[2, 1, 2, 2, 5, 2, 2, 3, 4, 4, 3, 1]",1.4097222222222223
RAF Museum London,attraction,London,51.598573987214,-0.23998260498047,8,31,"[1, 3, 2, 3, 4, 3, 2, 5, 2, 3, 3, 0]",1.576388888888889
The Monument to the Great Fire of London,poi,London,51.510133128058,-0.086133018329933,7,31,"[4, 2, 2, 3, 3, 3, 2, 4, 2, 2, 2, 2]",0.5763888888888888
Brawn,restaurant,London,51.528929,-0.070285,7,31,"[4, 5, 1, 2, 2, 2, 4, 1, 3, 5, 0, 2]",2.4097222222222223
full stop.,restaurant,London,51.524149,-0.071466,7,31,"[1, 1, 3, 3, 2, 2, 3, 4, 3, 5, 3, 1]",1.4097222222222223
Del'Aziz,restaurant,London,51.480932,-0.197785,7,31,"[3, 3, 3, 4, 2, 2, 0, 3, 1, 5, 3, 2]",1.576388888888889
Canteen,restaurant,London,51.519625,-0.076277,7,31,"[2, 2, 2, 3, 4, 1, 3, 4, 2, 2, 3, 3]",0.7430555555555557
Lotus Floating Restaurant,restaurant,London,51.496948,-0.016168,7,31,"[4, 1, 1, 2, 1, 4, 3, 4, 4, 4, 2, 1]",1.7430555555555556
Côte,restaurant,London,51.511142,-0.305153,7,31,"[2, 1, 5, 3, 3, 2, 1, 3, 2, 5, 3, 1]",1.7430555555555556
Hare & Tortoise,restaurant,London,51.515605,-0.30212,7,31,"[6, 0, 3, 2, 2, 3, 3, 5, 3, 2, 2, 0]",2.7430555555555554
Katzenjammers,restaurant,London,51.504852,-0.09119,7,31,"[3, 1, 1, 4, 2, 5, 1, 1, 3, 5, 4, 1]",2.4097222222222223
Grazing Goat,restaurant,London,51.515253,-0.158133,7,31,"[2, 1, 5, 4, 4, 1, 1, 5, 1, 4, 1, 2]",2.5763888888888893
"Museum of Brands, Packaging and Advertising",attraction,London,51.515193,-0.201382,7,31,"[3, 1, 3, 5, 4, 0, 2, 2, 3, 5, 3, 0]",2.576388888888889
Defectors Weld,attraction,London,51.505142,-0.224362,7,31,"[3, 1, 3, 4, 4, 1, 4, 5, 1, 0, 4, 1]",2.576388888888889
Zefi,attraction,London,51.494091,-0.167776,7,31,"[2, 1, 2, 1, 3, 2, 2, 6, 3, 2, 4, 3]",1.7430555555555556
China Tang At The Dorchester,restaurant,London,51.507569,-0.152979,6,31,"[1, 2, 2, 5, 3, 6, 1, 2, 2, 3, 4, 0]",2.7430555555555554
The Real Greek,restaurant,London,51.506594,-0.221847,6,31,"[1, 1, 1, 2, 3, 4, 2, 5, 3, 4, 3, 2]",1.576388888888889
Bangalore,restaurant,London,51.503086,-0.110654,6,31,"[3, 2, 3, 3, 4, 1, 2, 1, 2, 3, 5, 2]",1.2430555555555556
Odeon Whiteleys,attraction,London,51.515129,-0.18857,6,31,"[1, 4, 3, 4, 3, 5, 2, 0, 2, 1, 5, 1]",2.576388888888889
Portobello Star,attraction,London,51.514791576043,-0.2044159674635,6,31,"[3, 3, 1, 1, 3, 3, 4, 1, 3, 4, 5, 0]",2.076388888888889
The Old Blue Last,attraction,London,51.52433116748,-0.080213486906649,6,31,"[1, 2, 2, 0, 2, 2, 4, 5, 3, 5, 3, 2]",2.076388888888889
The Scolt Head,attraction,London,51.543185724232,-0.08164644241333,6,31,"[3, 1, 3, 4, 1, 2, 2, 2, 2, 6, 2, 3]",1.7430555555555556
Taylor St Baristas,restaurant,London,51.504722,-0.021988,9,30,"[4, 1, 1, 1, 3, 4, 1, 6, 2, 3, 1, 3]",2.4166666666666665
Coffee Circus Ltd.,restaurant,London,51.577909,-0.123433,8,30,"[0, 1, 1, 4, 5, 2, 4, 3, 3, 2, 2, 3]",1.9166666666666667
Bukowski Grill,restaurant,London,51.461915,-0.113457,8,30,"[2, 2, 2, 4, 2, 2, 4, 3, 3, 2, 3, 1]",0.75
Banana Tree,restaurant,London,51.531367,-0.106007,8,30,"[3, 2, 3, 2, 4, 4, 2, 2, 3, 4, 1, 0]",1.4166666666666667
Bottega Prelibato,restaurant,London,51.526132,-0.081448,8,30,"[0, 3, 1, 3, 4, 3, 3, 4, 5, 3, 0, 1]",2.4166666666666665
Tsunami,restaurant,London,51.46471,-0.131451,8,30,"[2, 0, 3, 4, 0, 3, 2, 6, 4, 1, 2, 3]",2.75
Charlotte's Bistro,restaurant,London,51.493142,-0.255209,8,30,"[0, 4, 3, 4, 3, 1, 2, 3, 5, 2, 1, 2]",1.9166666666666667
Birdhouse.,restaurant,London,51.460922,-0.17462,7,30,"[3, 1, 0, 3, 3, 4, 2, 5, 1, 3, 2, 3]",1.75
Harrison's,restaurant,London,51.444669,-0.150716,7,30,"[3, 3, 2, 6, 4, 3, 0, 2, 0, 1, 4, 2]",2.75
Coco Momo,restaurant,London,51.520919,-0.152055,7,30,"[0, 2, 3, 5, 3, 3, 1, 3, 4, 2, 0, 4]",2.25
Marine Ices,restaurant,London,51.544229,-0.1531,7,30,"[0, 2, 4, 2, 6, 4, 3, 3, 1, 1, 2, 2]",2.4166666666666665
Asakusa Restaurant,restaurant,London,51.534024,-0.138276,7,30,"[1, 2, 6, 2, 2, 2, 0, 1, 4, 4, 4, 2]",2.5833333333333335
The North Star,restaurant,London,51.513778,-0.301856,7,30,"[3, 1, 2, 0, 1, 2, 4, 1, 5, 4, 2, 5]",2.5833333333333335
Cargo,restaurant,London,51.526328,-0.078728,7,30,"[3, 6, 1, 1, 3, 1, 2, 1, 4, 2, 3, 3]",2.0833333333333335
Brunswick House Cafe,restaurant,London,51.484728,-0.12635,7,30,"[2, 2, 1, 7, 1, 2, 1, 3, 2, 2, 4, 3]",2.5833333333333335
Homa,restaurant,London,51.562125,-0.077261,7,30,"[2, 0, 4, 2, 2, 2, 3, 2, 5, 4, 2, 2]",1.5833333333333333
Ace Cafe London,restaurant,London,51.541261,-0.277926,7,30,"[2, 1, 2, 1, 1, 1, 2, 6, 5, 2, 3, 4]",2.5833333333333335
Buddha-Bar London,restaurant,London,51.501595,-0.161808,7,30,"[2, 3, 3, 0, 1, 4, 1, 0, 5, 3, 4, 4]",2.5833333333333335
Restaurant Gordon Ramsay,restaurant,London,51.485512,-0.162083,7,30,"[3, 1, 2, 3, 2, 0, 3, 1, 3, 5, 6, 1]",2.75
The Cow,attraction,London,51.519200629511,-0.19549831521887,7,30,"[3, 1, 3, 3, 0, 2, 5, 5, 2, 4, 1, 1]",2.4166666666666665
Cafe Kick,attraction,London,51.52598690077,-0.10898675781392,7,30,"[1, 0, 3, 5, 2, 4, 3, 1, 3, 4, 4, 0]",2.5833333333333335
The Lyric,attraction,London,51.511247,-0.134299,7,30,"[1, 2, 5, 3, 5, 3, 1, 3, 2, 1, 1, 3]",1.9166666666666667
Chelsea and Westminster Hospital,poi,London,51.48426,-0.181459,6,30,"[3, 3, 3, 1, 1, 2, 3, 6, 2, 3, 2, 1]",1.75
Mangal 1 Ocakbasi Restaurant,restaurant,London,51.5519,-0.07411,6,30,"[1, 1, 3, 2, 2, 3, 2, 5, 6, 3, 1, 1]",2.4166666666666665
Angus Steakhouse,restaurant,London,51.510585,-0.131098,6,30,"[1, 2, 5, 0, 3, 2, 3, 2, 4, 4, 3, 1]",1.9166666666666667
Taylor St Baristas,restaurant,London,51.517504,-0.080009,6,30,"[3, 3, 3, 0, 1, 2, 4, 5, 2, 4, 2, 1]",1.9166666666666667
The Tommyfield,restaurant,London,51.488621,-0.110922,6,30,"[4, 2, 3, 2, 6, 0, 4, 1, 1, 1, 3, 3]",2.5833333333333335
Fire and Stone - Westfield,restaurant,London,51.506511,-0.222728,6,30,"[2, 2, 1, 1, 2, 4, 6, 0, 4, 2, 3, 3]",2.4166666666666665
The Ten Bells,attraction,London,51.51925750356,-0.074518652002891,6,30,"[3, 3, 5, 1, 2, 2, 5, 0, 3, 2, 1, 3]",2.0833333333333335
The Old Vic,attraction,London,51.502084428879,-0.10951995849609,6,30,"[3, 2, 2, 3, 4, 3, 2, 4, 5, 2, 0, 0]",2.0833333333333335
The Berkeley,attraction,London,51.502007525887,-0.15634368798544,6,30,"[3, 0, 2, 4, 3, 3, 5, 1, 2, 2, 3, 2]",1.5833333333333333
Outsider Tart,restaurant,London,51.492753,-0.251977,8,29,"[1, 2, 2, 4, 0, 2, 5, 3, 1, 3, 2, 4]",1.9097222222222223
The Gallery Cafe,restaurant,London,51.529874,-0.05447,8,29,"[1, 0, 1, 2, 2, 3, 5, 3, 2, 6, 3, 1]",2.743055555555556
Thai Square,restaurant,London,51.5349,-0.104259,8,29,"[0, 3, 2, 2, 2, 1, 6, 2, 2, 5, 3, 1]",2.576388888888889
Rio Cinema,attraction,London,51.54968,-0.075559,8,29,"[5, 4, 3, 2, 2, 1, 3, 0, 2, 3, 3, 1]",1.7430555555555556
The Dove,attraction,London,51.490463,-0.234799,8,29,"[3, 1, 3, 2, 5, 2, 3, 5, 1, 1, 0, 3]",2.2430555555555554
The Union Bar,attraction,London,51.519418652071,-0.17939686775208,8,29,"[1, 0, 3, 4, 4, 4, 1, 4, 1, 3, 3, 1]",2.076388888888889
Duke of Cambridge,attraction,London,51.534673141111,-0.098670319280216,8,29,"[3, 3, 3, 2, 6, 1, 4, 1, 1, 1, 2, 2]",2.076388888888889
Sacred,restaurant,London,51.507202,-0.223219,7,29,"[1, 2, 3, 3, 2, 2, 3, 3, 2, 2, 4, 2]",0.5763888888888888
Burger and Lobster,restaurant,London,51.513499,-0.094604,7,29,"[1, 2, 2, 4, 2, 3, 5, 2, 3, 4, 1, 0]",1.909722222222222
Fujiyama,restaurant,London,51.461366,-0.111625,7,29,"[2, 0, 3, 0, 4, 2, 3, 4, 1, 4, 4, 2]",2.076388888888889
The Miller,restaurant,London,51.50218,-0.08746,7,29,"[3, 3, 1, 3, 1, 5, 3, 3, 3, 4, 0, 0]",2.2430555555555554
Baker & Spice,restaurant,London,51.525663,-0.179653,7,29,"[2, 2, 3, 4, 4, 3, 0, 4, 2, 3, 1, 1]",1.5763888888888886
The Anthologist,restaurant,London,51.514938,-0.091349,7,29,"[2, 2, 4, 4, 5, 1, 0, 3, 5, 1, 1, 1]",2.7430555555555554
Crazy Homies,restaurant,London,51.518835,-0.19704,6,29,"[2, 1, 2, 4, 3, 3, 2, 4, 3, 4, 1, 0]",1.576388888888889
Counter & Table,restaurant,London,51.498177,-0.222594,6,29,"[4, 2, 2, 3, 2, 2, 4, 0, 3, 4, 3, 0]",1.7430555555555554
Barrio East,restaurant,London,51.525971,-0.078117,6,29,"[3, 5, 2, 1, 2, 2, 1, 3, 0, 5, 2, 3]",2.076388888888889
Finsbury Park,attraction,London,51.568712,-0.102706,6,29,"[0, 1, 3, 2, 1, 3, 5, 4, 1, 3, 4, 2]",2.076388888888889
Cineworld Hammersmith,attraction,London,51.492576,-0.234725,6,29,"[1, 3, 3, 1, 4, 2, 2, 0, 3, 4, 2, 4]",1.576388888888889
Battersea Park,attraction,London,51.479512013818,-0.15698432922363,6,29,"[2, 3, 2, 4, 1, 1, 6, 4, 2, 2, 1, 1]",2.2430555555555554
The Golden Heart,attraction,London,51.520243352929,-0.074469755893696,6,29,"[1, 2, 5, 3, 5, 1, 2, 3, 2, 1, 2, 2]",1.7430555555555554
Nespresso Boutique,restaurant,London,51.51009,-0.135583,8,28,"[1, 2, 3, 3, 2, 4, 1, 2, 4, 3, 1, 2]",1.0555555555555556
Yum Yum,restaurant,London,51.562565,-0.073639,8,28,"[0, 1, 4, 1, 1, 5, 4, 3, 2, 2, 1, 4]",2.388888888888889
Fish House,restaurant,London,51.537135,-0.044737,8,28,"[2, 1, 4, 1, 1, 2, 5, 2, 4, 3, 2, 1]",1.722222222222222
Byron,restaurant,London,51.485853,-0.173234,8,28,"[3, 4, 3, 2, 4, 3, 1, 2, 1, 3, 2, 0]",1.388888888888889
Colbert,restaurant,London,51.492788,-0.156673,7,28,"[3, 1, 3, 4, 2, 1, 0, 1, 1, 6, 2, 4]",2.722222222222222
Boisdale of Belgravia,restaurant,London,51.494409,-0.148054,7,28,"[2, 1, 2, 1, 1, 6, 4, 2, 2, 4, 2, 1]",2.2222222222222223
Khan's,restaurant,London,51.515621,-0.189074,7,28,"[1, 0, 3, 4, 0, 0, 4, 4, 3, 2, 3, 4]",2.555555555555556
Wasabi,restaurant,London,51.495479,-0.145101,7,28,"[1, 0, 4, 1, 3, 3, 2, 1, 3, 2, 4, 4]",1.7222222222222223
Fire Station,restaurant,London,51.502633,-0.110471,7,28,"[1, 3, 2, 1, 1, 1, 4, 3, 5, 4, 2, 1]",1.888888888888889
Mamuśka!,restaurant,London,51.494008,-0.100068,7,28,"[3, 2, 2, 2, 1, 1, 3, 4, 4, 4, 1, 1]",1.3888888888888886
The Enterprise,attraction,London,51.543933041106,-0.15264987945557,7,28,"[6, 1, 3, 5, 2, 1, 2, 0, 3, 2, 1, 2]",2.7222222222222228
St Martin in the Fields,attraction,London,51.50880255695,-0.12686848640442,7,28,"[2, 1, 3, 3, 5, 3, 0, 5, 1, 1, 1, 3]",2.3888888888888893
One New Change,attraction,London,51.513737012036,-0.095915794372559,7,28,"[4, 0, 0, 2, 0, 2, 3, 4, 4, 4, 3, 2]",2.388888888888889
Cannon Street station,poi,London,51.51151,-0.09041,6,28,"[0, 4, 3, 4, 1, 4, 2, 1, 4, 0, 3, 2]",2.2222222222222223
The Anglesea Arms,restaurant,London,51.490115,-0.17679,6,28,"[1, 1, 2, 5, 2, 2, 6, 2, 3, 2, 2, 0]",2.555555555555556
Chop Chop Noodle Bar,restaurant,London,51.530391,-0.122677,6,28,"[0, 2, 4, 5, 2, 1, 3, 2, 4, 2, 1, 2]",1.888888888888889
The North London Tavern,attraction,London,51.5456144592,-0.20252287387848,6,28,"[2, 3, 5, 1, 3, 4, 2, 0, 2, 1, 5, 0]",2.722222222222222
The Alice House,attraction,London,51.534731692625,-0.20467734416711,6,28,"[5, 2, 4, 2, 3, 0, 2, 1, 1, 4, 2, 2]",1.888888888888889
Rock & Rose Restaurant,restaurant,London,51.466353,-0.29759,9,27,"[4, 0, 4, 2, 4, 3, 3, 1, 2, 2, 2, 0]",1.8541666666666667
Taylor st Baristas,restaurant,London,51.463554,-0.301774,9,27,"[2, 2, 5, 0, 2, 2, 2, 3, 4, 1, 2, 2]",1.5208333333333333
Maroush II,restaurant,London,51.497334,-0.16454,8,27,"[6, 0, 4, 2, 1, 3, 2, 3, 2, 3, 1, 0]",2.6875
Casa Brindisa,restaurant,London,51.495043,-0.173083,8,27,"[2, 1, 1, 3, 3, 3, 4, 4, 3, 1, 0, 2]",1.5208333333333333
Maggie Jones's,restaurant,London,51.50285,-0.191062,8,27,"[1, 1, 3, 2, 4, 3, 4, 1, 3, 0, 4, 1]",1.8541666666666667
Bella Vita,restaurant,London,51.536989,-0.061377,8,27,"[2, 2, 1, 6, 3, 4, 2, 2, 0, 2, 0, 3]",2.5208333333333335
Le Pain Quotidien,restaurant,London,51.486994,-0.169647,8,27,"[3, 3, 0, 2, 5, 3, 2, 2, 1, 2, 1, 3]",1.5208333333333333
E Pellicci,restaurant,London,51.526508,-0.063436,8,27,"[2, 2, 5, 2, 1, 3, 1, 2, 2, 4, 1, 2]",1.3541666666666667
Geffrye Museum,attraction,London,51.531742,-0.07663,8,27,"[1, 2, 2, 1, 4, 2, 2, 3, 3, 6, 1, 0]",2.3541666666666665
Galvin At Windows,attraction,London,51.505393205661,-0.15040914023923,8,27,"[3, 1, 1, 2, 5, 4, 3, 0, 4, 1, 3, 0]",2.5208333333333335
Railroad,restaurant,London,51.546979,-0.049501,7,27,"[0, 1, 2, 1, 0, 2, 2, 3, 4, 4, 5, 3]",2.3541666666666665
Locanda Locatelli,restaurant,London,51.514987,-0.157314,7,27,"[3, 1, 2, 1, 1, 1, 2, 6, 3, 3, 2, 2]",1.8541666666666667
C'est Ici,restaurant,London,51.489847,-0.213232,7,27,"[1, 2, 1, 1, 2, 6, 2, 5, 2, 3, 1, 1]",2.5208333333333335
The Oval Lounge,restaurant,London,51.480601,-0.113854,7,27,"[2, 2, 1, 2, 2, 3, 2, 3, 1, 5, 3, 1]",1.1875
Addie's Thai Restaurant,restaurant,London,51.493758,-0.19476,7,27,"[3, 3, 1, 1, 1, 4, 5, 4, 3, 0, 1, 1]",2.3541666666666665
Nando's,restaurant,London,51.492594,-0.19387,7,27,"[2, 2, 2, 3, 1, 4, 2, 2, 1, 2, 3, 3]",0.6875
Brew,restaurant,London,51.459489,-0.166306,7,27,"[2, 2, 0, 5, 3, 2, 2, 2, 5, 1, 1, 2]",2.0208333333333335
Le Pain Quotidien,restaurant,London,51.520153,-0.13402,7,27,"[2, 2, 4, 1, 2, 1, 0, 2, 5, 4, 2, 2]",1.8541666666666667
Rodizio Preto,restaurant,London,51.492863,-0.140557,7,27,"[0, 2, 3, 1, 3, 2, 0, 6, 3, 2, 4, 1]",2.6875
Teapod,restaurant,London,51.503654,-0.073995,7,27,"[3, 4, 3, 3, 2, 2, 4, 1, 1, 0, 2, 2]",1.3541666666666667
Princess Victoria,restaurant,London,51.506493,-0.240819,7,27,"[3, 2, 4, 1, 3, 1, 3, 2, 1, 4, 2, 1]",1.1875
Côte Brasserie,restaurant,London,51.506151485558,-0.08364200592041,7,27,"[4, 1, 2, 0, 2, 2, 3, 3, 4, 2, 2, 2]",1.1875
Churchill War Rooms (Churchill Museum & Cabinet War Rooms),attraction,London,51.501838214359,-0.12882649898529,7,27,"[0, 2, 5, 3, 1, 2, 3, 2, 2, 3, 3, 1]",1.5208333333333333
Island Queen,attraction,London,51.533091831472,-0.098469410992915,7,27,"[4, 2, 4, 1, 1, 1, 4, 2, 2, 3, 3, 0]",1.6875
Victoria Palace Theatre,attraction,London,51.49678602064,-0.14220851014521,7,27,"[2, 2, 2, 2, 2, 1, 2, 5, 4, 1, 0, 4]",1.8541666666666667
Electric Cinema,attraction,London,51.515514989023,-0.20489357076957,7,27,"[0, 3, 2, 3, 4, 4, 2, 2, 2, 2, 2, 1]",1.1875
Star of Bethnal Green,attraction,London,51.52677064647,-0.061966509704438,7,27,"[3, 2, 1, 2, 3, 3, 2, 4, 2, 3, 2, 0]",1.0208333333333333
Crown and Goose,attraction,London,51.536805705343,-0.14236806916293,7,27,"[3, 2, 0, 4, 2, 2, 2, 3, 4, 3, 2, 0]",1.5208333333333333
The Gate Clock (Wetherspoon),attraction,London,51.4814513823,-0.011050701141357,7,27,"[1, 2, 2, 5, 2, 1, 0, 4, 4, 2, 4, 0]",2.5208333333333335
Red Lion,attraction,London,51.567780042667,0.01084392359428,7,27,"[5, 3, 3, 3, 1, 1, 5, 3, 0, 1, 0, 2]",2.6875
Chipotle Mexican Grill,restaurant,London,51.515054,-0.13544,6,27,"[1, 1, 1, 5, 4, 3, 2, 3, 3, 1, 2, 1]",1.6875
Wagamama,restaurant,London,51.506093,-0.219626,6,27,"[1, 3, 2, 2, 2, 3, 2, 4, 3, 2, 2, 1]",0.6875
Belushi,restaurant,London,51.493218,-0.224404,6,27,"[2, 1, 0, 5, 3, 1, 4, 2, 1, 2, 4, 2]",2.0208333333333335
The Hope,restaurant,London,51.446289,-0.165355,6,27,"[3, 1, 3, 3, 2, 4, 3, 3, 2, 1, 0, 2]",1.1875
Costa Coffee,restaurant,London,51.503474,-0.112272,6,27,"[2, 3, 2, 0, 2, 5, 3, 1, 4, 1, 1, 3]",1.8541666666666667
Wagamama,restaurant,London,51.534248,-0.106212,6,27,"[1, 3, 0, 5, 6, 2, 2, 3, 1, 1, 2, 1]",2.8541666666666665
The Wells,restaurant,London,51.558715,-0.173595,6,27,"[0, 1, 1, 6, 1, 2, 1, 5, 3, 2, 3, 2]",2.8541666666666665
Orangery at Kensington Palace,restaurant,London,51.507032967219,-0.18754005432129,6,27,"[2, 1, 3, 3, 1, 1, 1, 6, 0, 5, 2, 2]",2.8541666666666665
Vibe Bar,attraction,London,51.521569386738,-0.071817209558754,6,27,"[4, 3, 1, 1, 2, 4, 4, 2, 3, 2, 1, 0]",1.6875
The Royal Oak,attraction,London,51.529534071291,-0.069335176073408,6,27,"[2, 2, 1, 1, 4, 2, 0, 2, 3, 5, 1, 4]",2.0208333333333335
Captain Kidd,attraction,London,51.503213090192,-0.057721138000488,6,27,"[1, 1, 1, 3, 3, 3, 5, 4, 1, 0, 4, 1]",2.3541666666666665
Lock 17,attraction,London,51.54117405,-0.145784,6,27,"[1, 4, 4, 2, 2, 3, 3, 3, 0, 5, 0, 0]",2.6875
The Spurstowe Arms,attraction,London,51.545363,-0.063311,6,27,"[0, 1, 2, 1, 5, 2, 2, 1, 3, 4, 5, 1]",2.5208333333333335
Penderel's Oak (Wetherspoon),attraction,London,51.518128,-0.115592,6,27,"[1, 4, 3, 0, 4, 2, 4, 3, 1, 1, 2, 2]",1.6875
Maison d'etre,restaurant,London,51.545726,-0.102048,8,26,"[2, 1, 1, 2, 3, 3, 2, 0, 2, 4, 6, 0]",2.638888888888889
The Bread & Bean,restaurant,London,51.564359,-0.134987,8,26,"[4, 1, 1, 2, 1, 4, 4, 3, 2, 3, 1, 0]",1.8055555555555554
Exmouth Coffee Company,restaurant,London,51.515908,-0.070309,8,26,"[4, 2, 4, 2, 4, 1, 4, 0, 2, 3, 0, 0]",2.472222222222222
Lola & Simón,restaurant,London,51.493581,-0.240336,8,26,"[1, 2, 4, 0, 0, 2, 2, 2, 4, 6, 1, 2]",2.8055555555555554
La Porte des Indes,restaurant,London,51.514363,-0.157969,8,26,"[0, 0, 1, 0, 1, 4, 2, 3, 5, 3, 4, 3]",2.8055555555555554
The Lido Cafe,restaurant,London,51.453275,-0.10628,8,26,"[0, 0, 2, 4, 3, 3, 3, 2, 3, 4, 0, 2]",1.9722222222222223
The Montcalm at The Brewery,attraction,London,51.520888191304,-0.09139464643779,8,26,"[2, 4, 4, 2, 3, 0, 1, 2, 1, 4, 0, 3]",1.972222222222222
Byron,restaurant,London,51.508776,-0.131771,7,26,"[3, 3, 2, 2, 1, 3, 1, 2, 1, 4, 2, 2]",0.8055555555555557
The Crooked Well,restaurant,London,51.472929,-0.089745,7,26,"[1, 0, 1, 2, 2, 2, 3, 3, 3, 6, 3, 0]",2.472222222222222
Cabana Brasilian Barbecue,restaurant,London,51.506411,-0.222258,7,26,"[0, 0, 3, 2, 4, 3, 3, 4, 1, 1, 1, 4]",2.138888888888889
John Salt,restaurant,London,51.539007,-0.102507,7,26,"[2, 2, 3, 3, 2, 3, 1, 3, 3, 0, 3, 1]",0.9722222222222222
The Rapscallion,restaurant,London,51.46245,-0.137789,7,26,"[4, 3, 1, 1, 4, 1, 1, 5, 3, 2, 1, 0]",2.305555555555556
Tinto Coffee,restaurant,London,51.473794,-0.21291,7,26,"[1, 0, 3, 4, 4, 1, 3, 2, 2, 1, 3, 2]",1.472222222222222
Draft House,restaurant,London,51.457464,-0.165911,7,26,"[1, 4, 2, 3, 3, 3, 3, 1, 2, 3, 0, 1]",1.3055555555555556
Kitchen & Pantry,restaurant,London,51.515037,-0.205289,7,26,"[0, 3, 2, 3, 4, 1, 4, 5, 3, 1, 0, 0]",2.8055555555555554
Jamie's Italian,restaurant,London,51.407888,-0.307568,7,26,"[2, 1, 2, 1, 2, 2, 2, 1, 2, 4, 6, 1]",1.9722222222222223
Bodean's BBQ,restaurant,London,51.479815,-0.195711,7,26,"[1, 3, 2, 2, 3, 3, 3, 1, 3, 2, 3, 0]",0.9722222222222222
Firecracker,restaurant,London,51.494941,-0.127166,7,26,"[1, 2, 1, 1, 2, 2, 1, 1, 3, 4, 4, 4]",1.472222222222222
Grand Bazaar,restaurant,London,51.515532,-0.150702,7,26,"[4, 2, 2, 5, 4, 1, 2, 1, 1, 3, 0, 1]",2.138888888888889
Nando's,restaurant,London,51.507219945985,-0.092654228210449,7,26,"[2, 1, 2, 2, 2, 6, 2, 0, 3, 3, 1, 2]",1.9722222222222223
The Ship,attraction,London,51.513921,-0.134406,7,26,"[3, 3, 1, 2, 2, 4, 2, 1, 1, 1, 3, 3]",0.9722222222222222
The Haggerston,attraction,London,51.542356688889,-0.076251,7,26,"[3, 2, 1, 2, 4, 0, 2, 2, 3, 3, 3, 1]",1.1388888888888888
The Cuckfield,attraction,London,51.579269777842,0.024933815002441,7,26,"[3, 1, 4, 3, 2, 0, 2, 3, 1, 1, 2, 4]",1.4722222222222223
St Katharine Docks,attraction,London,51.507300079507,-0.071196556091309,7,26,"[1, 3, 3, 1, 1, 2, 1, 2, 5, 4, 1, 2]",1.638888888888889
Grange St. Pauls Hotel,attraction,London,51.512781285782,-0.099546818749766,7,26,"[2, 1, 2, 1, 1, 4, 3, 1, 3, 3, 3, 2]",0.9722222222222222
Fenchurch Street Station,poi,London,51.511452,-0.078363,6,26,"[0, 3, 1, 4, 2, 2, 2, 2, 3, 4, 3, 0]",1.638888888888889
South Kensington London Underground Station,poi,London,51.494112879956,-0.1737105846405,6,26,"[2, 1, 3, 2, 4, 5, 1, 0, 4, 1, 2, 1]",2.138888888888889
Thames Clipper,poi,London,51.508528775863,-0.038280487060547,6,26,"[0, 3, 1, 1, 2, 2, 2, 1, 7, 2, 2, 3]",2.805555555555556
Wembley Park London Underground Station,poi,London,51.563236468022,-0.27969270031106,6,26,"[1, 4, 3, 4, 4, 1, 1, 1, 0, 3, 1, 3]",1.972222222222222
Jamie's Italian,restaurant,London,51.543318,-0.008851,6,26,"[1, 3, 2, 0, 3, 1, 3, 2, 4, 4, 3, 0]",1.8055555555555554
Voodoo Ray's,restaurant,London,51.549322,-0.075457,6,26,"[3, 1, 2, 1, 0, 2, 1, 3, 3, 2, 3, 5]",1.638888888888889
The Blue Legume,restaurant,London,51.562054,-0.079263,6,26,"[2, 2, 0, 3, 2, 4, 3, 2, 3, 0, 1, 4]",1.6388888888888886
Bibendum Restaurant,restaurant,London,51.493373,-0.16901,6,26,"[1, 2, 2, 4, 4, 3, 1, 1, 5, 2, 0, 1]",2.138888888888889
Indo,restaurant,London,51.517665,-0.06604,6,26,"[2, 1, 1, 2, 1, 4, 2, 5, 2, 5, 0, 1]",2.4722222222222223
Joes Kitchen & Coffee House,restaurant,London,51.501399,-0.09398,6,26,"[1, 3, 1, 1, 3, 2, 2, 4, 5, 1, 3, 0]",1.972222222222222
Caffe Nero,restaurant,London,51.507316,-0.128402,6,26,"[1, 1, 3, 2, 1, 1, 1, 7, 3, 2, 1, 3]",2.805555555555556
Caffè Nero,restaurant,London,51.527639,-0.132862,6,26,"[2, 2, 4, 1, 2, 3, 3, 1, 3, 0, 3, 2]",1.1388888888888888
Balans,restaurant,London,51.499991,-0.195555,6,26,"[6, 1, 2, 3, 3, 3, 2, 2, 1, 1, 1, 1]",1.972222222222222
O'Neill's,restaurant,London,51.528974,-0.126192,6,26,"[3, 1, 3, 2, 2, 1, 5, 1, 3, 1, 4, 0]",1.9722222222222223
Spicy Basil,restaurant,London,51.540937,-0.196917,6,26,"[1, 1, 5, 0, 0, 3, 4, 4, 2, 2, 3, 1]",2.4722222222222223
The Light Restaurant And Bar,restaurant,London,51.521975879107,-0.078347639322013,6,26,"[1, 3, 1, 2, 5, 3, 5, 1, 0, 2, 3, 0]",2.638888888888889
Café Fiori,restaurant,London,51.511290760077,-0.12850190548062,6,26,"[2, 2, 1, 1, 2, 4, 2, 3, 2, 5, 1, 1]",1.4722222222222223
Trailer Happiness,attraction,London,51.515005594766,-0.20466327667236,6,26,"[2, 2, 1, 4, 0, 3, 6, 2, 1, 3, 2, 0]",2.6388888888888893
Royal Borough of Greenwich,attraction,London,51.481408859821,-0.0091966339501157,6,26,"[2, 2, 2, 2, 3, 1, 5, 4, 1, 2, 2, 0]",1.638888888888889
Prince Alfred,attraction,London,51.513683597251,-0.18760442733765,6,26,"[0, 4, 2, 2, 3, 3, 0, 2, 1, 2, 4, 3]",1.6388888888888886
Brockley Market,restaurant,London,51.468082,-0.024846,8,25,"[3, 2, 0, 1, 2, 2, 0, 1, 4, 6, 1, 3]",2.743055555555556
The Hunter. S,restaurant,London,51.545921,-0.083572,8,25,"[1, 2, 5, 4, 2, 1, 2, 3, 3, 2, 0, 0]",2.076388888888889
Beard To Tail,restaurant,London,51.524828,-0.080483,8,25,"[1, 0, 3, 1, 2, 1, 2, 3, 2, 5, 5, 0]",2.576388888888889
Le Peche Mignon,restaurant,London,51.550094,-0.107786,8,25,"[1, 2, 0, 3, 4, 2, 2, 2, 2, 3, 1, 3]",1.0763888888888888
Hot Stuff,restaurant,London,51.479633,-0.126388,8,25,"[0, 2, 2, 1, 2, 5, 2, 2, 5, 1, 3, 0]",2.4097222222222223
The Old Shoreditch Station,restaurant,London,51.527342,-0.078185,8,25,"[2, 0, 4, 4, 3, 1, 3, 0, 2, 2, 2, 2]",1.5763888888888884
The Stonhouse,restaurant,London,51.463904,-0.137028,8,25,"[1, 2, 2, 5, 2, 4, 1, 3, 2, 1, 2, 0]",1.7430555555555554
Dock Kitchen,restaurant,London,51.526659,-0.214456,8,25,"[3, 3, 3, 2, 0, 3, 2, 3, 3, 1, 0, 2]",1.2430555555555556
The Red Lion & Sun,restaurant,London,51.57261,-0.149972,8,25,"[1, 3, 5, 1, 0, 3, 1, 2, 4, 2, 1, 2]",1.909722222222222
Carluccio's,restaurant,London,51.472121278484,-0.48951387405396,8,25,"[2, 0, 1, 3, 3, 0, 4, 4, 3, 4, 0, 1]",2.4097222222222228
V&A Museum of Childhood,attraction,London,51.529088,-0.054937,8,25,"[2, 4, 3, 3, 2, 1, 5, 1, 0, 1, 2, 1]",1.909722222222222
The Roebuck,attraction,London,51.498043725788,-0.090546011924744,8,25,"[3, 3, 2, 3, 0, 1, 1, 4, 5, 2, 0, 1]",2.2430555555555554
The Pride of Spitalfields,attraction,London,51.518811130984,-0.071196556091309,8,25,"[2, 4, 1, 1, 4, 3, 0, 3, 5, 0, 1, 1]",2.576388888888889
The Brownswood,attraction,London,51.563914,-0.092666,8,25,"[1, 2, 3, 0, 2, 0, 2, 5, 4, 4, 1, 1]",2.409722222222222
H M Passport Office,poi,London,51.493385,-0.144013,7,25,"[2, 1, 3, 0, 2, 2, 2, 6, 4, 1, 1, 1]",2.409722222222222
Kaldi Coffee,restaurant,London,51.421267,-0.207274,7,25,"[1, 2, 0, 1, 4, 2, 2, 3, 4, 3, 1, 2]",1.409722222222222
The Britannia,restaurant,London,51.49867,-0.195415,7,25,"[0, 2, 6, 2, 4, 2, 0, 1, 3, 2, 1, 2]",2.576388888888889
Cucina Cafe Bar & Restaurant,restaurant,London,51.501472,-0.118382,7,25,"[1, 1, 1, 4, 2, 3, 6, 3, 0, 1, 2, 1]",2.576388888888889
Masala Zone Islington,restaurant,London,51.5367,-0.103682,7,25,"[0, 0, 3, 2, 2, 3, 1, 4, 2, 1, 2, 5]",2.076388888888889
The Merchant,restaurant,London,51.460896,-0.163499,7,25,"[1, 3, 2, 2, 0, 2, 6, 1, 1, 4, 1, 2]",2.4097222222222223
Starbucks Coffee,restaurant,London,51.516172,-0.132622,7,25,"[2, 3, 3, 2, 2, 3, 0, 3, 2, 3, 0, 2]",1.076388888888889
Tas Firin Restaurant,restaurant,London,51.525388,-0.070338,7,25,"[1, 1, 4, 2, 1, 1, 3, 2, 2, 2, 4, 2]",1.076388888888889
The Regent,restaurant,London,51.539042,-0.106947,7,25,"[4, 2, 1, 2, 2, 2, 1, 2, 4, 2, 0, 3]",1.2430555555555556
Silom Village,restaurant,London,51.513999,-0.300178,7,25,"[4, 1, 1, 0, 2, 3, 4, 3, 2, 1, 3, 1]",1.576388888888889
Pret A Manger,restaurant,London,51.472385,-0.450959,7,25,"[4, 0, 3, 4, 1, 3, 2, 1, 0, 2, 3, 2]",1.7430555555555554
Raizes,restaurant,London,51.532219,-0.058986,7,25,"[2, 1, 1, 4, 2, 2, 2, 2, 1, 3, 2, 3]",0.7430555555555555
Needoo Grill,restaurant,London,51.516935,-0.062523,7,25,"[3, 0, 2, 1, 3, 2, 3, 3, 5, 1, 2, 0]",1.909722222222222
Taste Of Siam,restaurant,London,51.535654,-0.139699,7,25,"[2, 1, 3, 2, 0, 6, 4, 2, 1, 1, 1, 2]",2.4097222222222223
Zerodegrees,restaurant,London,51.467347,0.008278,7,25,"[4, 4, 0, 1, 3, 3, 1, 2, 3, 2, 1, 1]",1.5763888888888886
Venn Street Records,restaurant,London,51.462315,-0.138001,7,25,"[3, 1, 3, 2, 1, 1, 1, 1, 2, 6, 3, 1]",2.076388888888889
The Victoria Inn,restaurant,London,51.4674501,-0.072436,7,25,"[1, 4, 1, 0, 1, 3, 3, 3, 3, 2, 2, 2]",1.2430555555555556
Eco,restaurant,London,51.462459,-0.13669,7,25,"[4, 2, 3, 0, 3, 3, 2, 0, 3, 2, 0, 3]",1.7430555555555556
The Prince Regent,attraction,London,51.453728,-0.106564,7,25,"[2, 5, 3, 4, 0, 2, 2, 3, 1, 2, 0, 1]",2.076388888888889
Old Kings Head,attraction,London,51.52314712,-0.082018,7,25,"[1, 6, 1, 0, 3, 2, 1, 2, 2, 4, 2, 1]",2.409722222222222
The Half Moon (Wetherspoon),attraction,London,51.522162871936,-0.04515736653622,7,25,"[1, 2, 0, 6, 1, 2, 3, 2, 1, 1, 2, 4]",2.4097222222222223
Sebright Arms,attraction,London,51.53194780159,-0.063214302062988,7,25,"[1, 3, 4, 3, 1, 3, 1, 2, 2, 2, 2, 1]",0.9097222222222222
Evans & Peel Detective Agency,restaurant,London,51.490136,-0.190895,6,25,"[2, 3, 2, 1, 0, 2, 3, 6, 1, 3, 0, 2]",2.4097222222222223
Tortilla,restaurant,London,51.506312,-0.099871,6,25,"[2, 4, 3, 0, 2, 4, 2, 2, 3, 0, 1, 2]",1.5763888888888886
Raoul's Restaurant & Bar Notting Hill,restaurant,London,51.516669,-0.20052,6,25,"[3, 1, 3, 0, 2, 5, 2, 3, 3, 1, 1, 1]",1.7430555555555554
Wagamama,restaurant,London,51.502433,-0.188973,6,25,"[1, 1, 4, 4, 2, 2, 2, 2, 4, 2, 0, 1]",1.576388888888889
Nandos,restaurant,London,51.503103,-0.018653,6,25,"[1, 2, 1, 5, 3, 3, 4, 0, 3, 2, 1, 0]",2.2430555555555554
The Phoenix,restaurant,London,51.498812,-0.142125,6,25,"[1, 4, 3, 2, 2, 2, 2, 2, 5, 0, 1, 1]",1.7430555555555554
wagamama,restaurant,London,51.493124,-0.194496,6,25,"[2, 0, 3, 4, 0, 3, 4, 3, 2, 3, 1, 0]",2.076388888888889
Leila's Shop,restaurant,London,51.526205,-0.075606,6,25,"[2, 0, 3, 2, 2, 1, 3, 1, 5, 4, 1, 1]",1.909722222222222
Odeon Cinema Swiss Cottage,attraction,London,51.542538,-0.174926,6,25,"[1, 1, 0, 1, 2, 3, 1, 2, 4, 4, 3, 3]",1.576388888888889
The Bedford,attraction,London,51.442771,-0.149612,6,25,"[0, 2, 2, 4, 4, 1, 1, 1, 2, 3, 3, 2]",1.4097222222222223
The Windmill On The Common Hotel,attraction,London,51.457475318796,-0.14391203781824,6,25,"[1, 0, 4, 1, 5, 0, 1, 3, 2, 3, 4, 1]",2.576388888888889
The Coat and Badge,attraction,London,51.464489,-0.216393,6,25,"[1, 3, 4, 4, 2, 2, 1, 2, 1, 3, 0, 2]",1.409722222222222
Bar Story,attraction,London,51.469611,-0.06982,6,25,"[3, 4, 2, 0, 4, 2, 2, 4, 1, 2, 1, 0]",1.909722222222222
Shakespeare's Head,attraction,London,51.513654789214,-0.13947534080509,6,25,"[3, 4, 2, 2, 3, 2, 1, 1, 2, 3, 2, 0]",1.076388888888889
Exmouth Arms,attraction,London,51.525744,-0.10997593402863,6,25,"[1, 3, 6, 2, 3, 1, 3, 2, 0, 2, 1, 1]",2.2430555555555554
Cineworld Cinemas,attraction,London,51.444499,-0.405878,6,25,"[5, 1, 1, 1, 2, 2, 4, 4, 1, 2, 1, 1]",1.9097222222222217
The Mayflower,attraction,London,51.50187,-0.053590536117554,6,25,"[1, 2, 1, 1, 3, 1, 3, 2, 3, 3, 3, 2]",0.7430555555555555
The Swan,attraction,London,51.51147,-0.176818,6,25,"[1, 2, 1, 3, 3, 4, 3, 2, 3, 1, 1, 1]",1.0763888888888886
Gigalum,attraction,London,51.453753593287,-0.14669619097631,6,25,"[2, 3, 4, 2, 2, 1, 3, 0, 2, 4, 1, 1]",1.4097222222222223
The Lyttelton Arms,attraction,London,51.534216964402,-0.13921737670898,6,25,"[3, 2, 1, 3, 3, 0, 3, 3, 3, 3, 1, 0]",1.409722222222222
The Junction Tavern,restaurant,London,51.555017,-0.139873,9,24,"[2, 4, 2, 3, 0, 3, 3, 1, 3, 1, 0, 2]",1.5
Banana Tree,restaurant,London,51.515571,-0.189453,9,24,"[2, 2, 1, 3, 1, 5, 2, 1, 3, 2, 0, 2]",1.5
Le Pain Quotidien,restaurant,London,51.521232,-0.152091,8,24,"[4, 1, 2, 2, 2, 4, 2, 2, 2, 1, 2, 0]",1.1666666666666667
Corner Room,restaurant,London,51.530518,-0.055288,8,24,"[0, 3, 1, 1, 1, 4, 2, 3, 4, 2, 1, 2]",1.5
The Muffin Man Tea Shop,restaurant,London,51.499498,-0.192805,8,24,"[2, 1, 5, 0, 2, 1, 3, 2, 1, 4, 1, 2]",1.8333333333333333
The Ladbroke Arms,restaurant,London,51.509034,-0.202822,8,24,"[2, 1, 3, 2, 2, 0, 2, 1, 4, 2, 1, 4]",1.3333333333333333
The Orchard,restaurant,London,51.463788,-0.035657,8,24,"[0, 3, 3, 1, 1, 3, 2, 1, 4, 4, 0, 2]",1.8333333333333333
Gourmet Burger Kitchen,restaurant,London,51.519591,-0.075767,8,24,"[0, 4, 1, 3, 2, 2, 2, 3, 3, 3, 0, 1]",1.5
Que Viet,restaurant,London,51.530032,-0.077236,8,24,"[0, 4, 3, 1, 1, 3, 4, 1, 2, 1, 3, 1]",1.6666666666666667
Cafe 338,restaurant,London,51.526526,-0.063239,8,24,"[1, 1, 2, 3, 1, 2, 2, 4, 4, 2, 1, 1]",1.1666666666666667
Public House,restaurant,London,51.543022,-0.103744,8,24,"[4, 0, 2, 2, 4, 3, 1, 2, 1, 1, 4, 0]",2.0
Da Scalzo,restaurant,London,51.492707,-0.14813,8,24,"[3, 1, 2, 2, 2, 2, 1, 2, 5, 2, 1, 1]",1.1666666666666667
H10 London Waterloo,restaurant,London,51.498718314356,-0.1062074303627,8,24,"[1, 2, 3, 0, 0, 4, 2, 1, 5, 3, 1, 2]",2.1666666666666665
The Grapes,attraction,London,51.50885602124,-0.034068822376901,8,24,"[2, 3, 1, 4, 2, 2, 1, 1, 1, 3, 4, 0]",1.5
The Clachan,attraction,London,51.513443229945,-0.14003276824951,8,24,"[1, 3, 2, 4, 1, 3, 1, 1, 3, 2, 1, 2]",1.0
Bea's of Bloomsbury,restaurant,London,51.513484,-0.095641,7,24,"[5, 2, 1, 2, 3, 1, 2, 1, 2, 2, 3, 0]",1.5
Princess Garden,restaurant,London,51.512745,-0.153173,7,24,"[4, 1, 1, 1, 3, 3, 1, 3, 0, 3, 1, 3]",1.5
Santa Maria del Sur,restaurant,London,51.470185,-0.149736,7,24,"[2, 0, 5, 5, 0, 2, 2, 2, 2, 2, 2, 0]",2.5
The Old Dairy,restaurant,London,51.570603,-0.115458,7,24,"[2, 4, 2, 3, 2, 0, 2, 1, 1, 4, 3, 0]",1.6666666666666667
Mel's Cafe Bar,restaurant,London,51.439819,-0.186716,7,24,"[3, 4, 1, 3, 0, 2, 1, 3, 2, 2, 3, 0]",1.5
Las Iguanas,restaurant,London,51.519637,-0.074774,7,24,"[0, 0, 5, 3, 2, 4, 2, 2, 4, 0, 0, 2]",2.8333333333333335
Wagamama,restaurant,London,51.50171,-0.159626,7,24,"[2, 1, 1, 1, 1, 3, 1, 4, 5, 1, 2, 2]",1.6666666666666667
Noodle Time,restaurant,London,51.480924,-0.009152,7,24,"[5, 2, 3, 1, 1, 2, 0, 2, 3, 2, 2, 1]",1.5
La Figa Restaurant,restaurant,London,51.510089,-0.039449,7,24,"[1, 4, 1, 2, 1, 1, 2, 5, 3, 3, 0, 1]",2.0
Giraffe,restaurant,London,51.458718,-0.305853,7,24,"[2, 2, 2, 2, 6, 1, 1, 1, 4, 2, 0, 1]",2.3333333333333335
Aces and Eights Saloon Bar,restaurant,London,51.556636,-0.138381,7,24,"[2, 2, 1, 3, 4, 1, 4, 2, 0, 4, 1, 0]",2.0
Coq d'Argent,restaurant,London,51.513508,-0.090742,7,24,"[1, 0, 0, 3, 3, 3, 2, 2, 2, 3, 1, 4]",1.5
Highgate Wood,attraction,London,51.58163,-0.150804,7,24,"[0, 2, 2, 4, 5, 2, 3, 3, 0, 0, 3, 0]",2.6666666666666665
Chiswick House & Gardens,attraction,London,51.483661259806,-0.25865077972412,7,24,"[2, 1, 3, 2, 3, 3, 1, 3, 3, 2, 1, 0]",1.0
The Falcon,attraction,London,51.46377,-0.167923,7,24,"[1, 2, 3, 2, 3, 1, 2, 1, 5, 2, 2, 0]",1.5
Proud Camden,attraction,London,51.542626224857,-0.14843031579811,7,24,"[1, 1, 1, 0, 2, 5, 3, 2, 2, 3, 4, 0]",2.1666666666666665
O'Neill's,attraction,London,51.514121687038,-0.13953521750193,7,24,"[1, 2, 4, 4, 2, 1, 2, 4, 1, 1, 0, 2]",1.6666666666666667
Jazz Cafe,attraction,London,51.538866467974,-0.14295304550168,7,24,"[0, 0, 6, 1, 3, 3, 1, 2, 3, 2, 2, 1]",2.5
HMS Belfast,poi,London,51.506163898949,-0.081319400302771,6,24,"[2, 1, 3, 1, 3, 0, 5, 4, 1, 1, 1, 2]",2.0
The Love Shake,restaurant,London,51.527757,-0.07818,6,24,"[3, 2, 1, 3, 3, 3, 2, 1, 1, 1, 2, 2]",0.6666666666666666
The Hampshire Hog,restaurant,London,51.492844,-0.235572,6,24,"[1, 3, 1, 1, 2, 2, 4, 1, 2, 1, 1, 5]",1.6666666666666667
Cafe Sol Dos,restaurant,London,51.46379,-0.132844,6,24,"[4, 2, 3, 3, 2, 1, 1, 2, 1, 2, 3, 0]",1.1666666666666667
MonkeyNuts,restaurant,London,51.580504,-0.124036,6,24,"[0, 3, 1, 1, 3, 4, 1, 4, 0, 3, 4, 0]",2.5
Giraffe Concepts,restaurant,London,51.493937,-0.142207,6,24,"[2, 2, 1, 3, 1, 2, 4, 3, 1, 3, 2, 0]",1.1666666666666667
805,restaurant,London,51.479837,-0.057062,6,24,"[1, 2, 3, 1, 1, 1, 2, 4, 4, 2, 3, 0]",1.5
Yo! Sushi,restaurant,London,51.516188,-0.176385,6,24,"[5, 0, 1, 0, 2, 5, 1, 3, 1, 1, 3, 2]",2.6666666666666665
Dragon Castle,restaurant,London,51.492032,-0.098308,6,24,"[1, 2, 4, 2, 5, 2, 0, 4, 1, 2, 0, 1]",2.3333333333333335
Rosie's,restaurant,London,51.461754,-0.113268,6,24,"[1, 4, 3, 1, 1, 2, 3, 1, 2, 1, 2, 3]",1.0
All Bar One,restaurant,London,51.502898,-0.072066,6,24,"[3, 0, 2, 3, 1, 1, 0, 1, 3, 2, 3, 5]",2.0
Jimmy Spices,restaurant,London,51.419218,-0.199914,6,24,"[5, 4, 0, 2, 3, 1, 0, 3, 1, 3, 1, 1]",2.3333333333333335
The Plough,restaurant,London,51.683186,-0.100443,6,24,"[3, 3, 3, 5, 2, 0, 2, 2, 2, 0, 0, 2]",2.0
Golden Square,attraction,London,51.511362,-0.137472,6,24,"[3, 0, 3, 1, 2, 3, 3, 5, 2, 2, 0, 0]",2.1666666666666665
The Old Fountain,attraction,London,51.527066575944,-0.088935028803084,6,24,"[1, 2, 2, 2, 4, 3, 0, 3, 1, 4, 2, 0]",1.6666666666666667
The Earl of Camden,attraction,London,51.537740616547,-0.14488220214844,6,24,"[4, 2, 1, 1, 5, 2, 1, 2, 2, 2, 1, 1]",1.5
The Blackbird,attraction,London,51.491684737004,-0.19211053848267,6,24,"[2, 0, 2, 2, 4, 2, 3, 0, 2, 3, 1, 3]",1.3333333333333333
White Horse,attraction,London,51.513378625035,-0.13861282411437,6,24,"[2, 0, 2, 2, 2, 3, 1, 1, 4, 1, 2, 4]",1.3333333333333333
The Fox,attraction,London,51.54071,-0.076415966666667,6,24,"[3, 1, 3, 4, 2, 1, 2, 3, 3, 1, 0, 1]",1.3333333333333333
Egg,attraction,London,51.541731090122,-0.1247763633728,6,24,"[1, 1, 2, 2, 2, 3, 4, 3, 2, 2, 0, 2]",1.0
The Wheatsheaf,attraction,London,51.505203205943,-0.091044902801514,6,24,"[2, 2, 3, 2, 2, 0, 2, 1, 2, 3, 1, 4]",1.0
Hungerford & Golden Jubilee Bridges,attraction,London,51.505964502407,-0.11964797973633,6,24,"[0, 3, 3, 1, 2, 2, 4, 1, 2, 3, 1, 2]",1.1666666666666667
Caffè Nero,attraction,London,51.51612725954,-0.14256477355957,6,24,"[2, 4, 5, 2, 3, 1, 0, 2, 3, 1, 1, 0]",2.1666666666666665
The Alma,attraction,London,51.460757606714,-0.18764581752507,6,24,"[2, 2, 2, 3, 1, 2, 2, 3, 2, 2, 3, 0]",0.6666666666666666
Hummingbird Cafe,restaurant,London,51.506691,-0.23678,9,23,"[1, 1, 1, 1, 2, 4, 1, 3, 2, 5, 2, 0]",1.9097222222222217
Meson Don Felipe,restaurant,London,51.502985,-0.107167,9,23,"[0, 0, 1, 2, 2, 3, 3, 3, 2, 3, 4, 0]",1.7430555555555556
Crown & Sceptre,restaurant,London,51.497908,-0.207456,8,23,"[5, 2, 0, 1, 4, 4, 0, 1, 3, 0, 2, 1]",2.7430555555555554
Aubaine,restaurant,London,51.515071,-0.152085,8,23,"[1, 1, 1, 4, 3, 0, 1, 1, 3, 3, 4, 1]",1.7430555555555554
Banana Tree,restaurant,London,51.460713,-0.166578,8,23,"[3, 2, 3, 0, 1, 4, 3, 2, 1, 3, 1, 0]",1.576388888888889
The Marylebone,restaurant,London,51.519921,-0.151946,8,23,"[1, 1, 2, 3, 3, 0, 3, 3, 2, 2, 2, 1]",0.9097222222222223
The Bishop,restaurant,London,51.45972,-0.075022,8,23,"[0, 0, 3, 2, 3, 3, 3, 2, 3, 1, 2, 1]",1.2430555555555556
Farm W5,restaurant,London,51.511014,-0.30518,8,23,"[1, 3, 2, 2, 5, 1, 4, 0, 1, 2, 0, 2]",2.076388888888889
Local Hero,restaurant,London,51.41087,-0.306583,8,23,"[2, 0, 2, 3, 3, 1, 1, 0, 5, 1, 3, 2]",1.909722222222222
Angels & Gypsies,restaurant,London,51.47397,-0.09007,8,23,"[1, 1, 0, 3, 1, 2, 3, 3, 4, 0, 3, 2]",1.5763888888888886
Donna Margherita,restaurant,London,51.464729,-0.159736,8,23,"[5, 0, 3, 4, 2, 0, 3, 1, 2, 1, 1, 1]",2.2430555555555554
Nardulli,restaurant,London,51.463015,-0.140658,8,23,"[0, 0, 1, 3, 3, 3, 4, 3, 2, 2, 1, 1]",1.5763888888888886
Mahdi Restaurant,restaurant,London,51.492796,-0.235084,8,23,"[1, 0, 1, 2, 2, 2, 1, 4, 3, 4, 2, 1]",1.409722222222222
Trullo,restaurant,London,51.546281,-0.10163,8,23,"[2, 5, 1, 1, 1, 3, 2, 2, 3, 1, 2, 0]",1.576388888888889
The Salisbury,attraction,London,51.582252264784,-0.099448993802071,8,23,"[2, 2, 2, 4, 0, 2, 1, 2, 3, 3, 1, 1]",1.076388888888889
Brockwell Lido,attraction,London,51.452850287397,-0.10600090026855,8,23,"[2, 0, 2, 1, 3, 4, 4, 2, 3, 2, 0, 0]",1.909722222222222
Wagamama,restaurant,London,51.543556,-0.006945,7,23,"[1, 1, 0, 3, 3, 1, 2, 6, 1, 2, 2, 1]",2.243055555555555
Antico,restaurant,London,51.498016,-0.081543,7,23,"[3, 1, 3, 3, 3, 2, 1, 1, 3, 3, 0, 0]",1.409722222222222
Bill's Restaurant,restaurant,London,51.532689,-0.106831,7,23,"[1, 3, 3, 2, 3, 2, 1, 2, 1, 2, 3, 0]",0.9097222222222222
Balans,restaurant,London,51.48933,-0.190409,7,23,"[0, 0, 3, 3, 3, 2, 1, 1, 2, 3, 1, 4]",1.5763888888888886
Dosa N Chutny,restaurant,London,51.427418,-0.168835,7,23,"[1, 1, 0, 3, 1, 3, 0, 2, 4, 2, 2, 4]",1.7430555555555554
Daylesford Organic Café,restaurant,London,51.514461,-0.200542,7,23,"[1, 1, 3, 1, 4, 1, 0, 2, 4, 2, 2, 2]",1.4097222222222217
Fat Cat Cafe,restaurant,London,51.562011,-0.080096,7,23,"[2, 1, 3, 2, 1, 2, 0, 2, 1, 4, 1, 4]",1.409722222222222
Loafing,restaurant,London,51.538044,-0.044697,7,23,"[0, 3, 1, 2, 1, 0, 2, 4, 1, 5, 3, 1]",2.243055555555556
Harry Morgan,restaurant,London,51.532903,-0.170137,7,23,"[1, 1, 2, 3, 2, 3, 2, 2, 4, 1, 1, 1]",0.9097222222222223
Maki,restaurant,London,51.466452,-0.297839,7,23,"[0, 1, 1, 4, 0, 6, 2, 2, 1, 3, 1, 2]",2.7430555555555554
Nando's,restaurant,London,51.516348,-0.136003,7,23,"[1, 1, 5, 3, 1, 1, 4, 3, 1, 0, 3, 0]",2.409722222222222
Yumchaa,restaurant,London,51.53823088164,-0.14409393901286,7,23,"[2, 0, 0, 4, 2, 3, 1, 5, 2, 1, 0, 3]",2.409722222222222
Love Walk Cafe,restaurant,London,51.470906,-0.092841,7,23,"[1, 2, 2, 1, 2, 2, 1, 3, 4, 3, 1, 1]",0.9097222222222223
The Royal Vauxhall Tavern,attraction,London,51.48607926756,-0.12195936965246,7,23,"[1, 1, 4, 3, 2, 1, 0, 4, 2, 1, 2, 2]",1.4097222222222217
Mews of Mayfair,attraction,London,51.512661678894,-0.14543340828251,7,23,"[2, 2, 2, 2, 0, 5, 3, 2, 0, 2, 1, 2]",1.5763888888888886
The Duke of Wellington,attraction,London,51.546296,-0.080739075,7,23,"[1, 0, 4, 3, 0, 2, 4, 1, 3, 2, 1, 2]",1.7430555555555551
Grand Union Brixton,attraction,London,51.459429093195,-0.12661071034286,7,23,"[1, 2, 2, 2, 0, 4, 3, 5, 3, 0, 1, 0]",2.409722222222222
The Antelope,attraction,London,51.426052566685,-0.16586780548096,7,23,"[1, 2, 1, 4, 4, 2, 2, 4, 2, 1, 0, 0]",1.909722222222222
Westow House,attraction,London,51.419997997421,-0.078846216201782,7,23,"[1, 0, 5, 3, 0, 2, 2, 1, 2, 3, 3, 1]",1.909722222222222
Henry's Cafe Bar,attraction,London,51.506612262189,-0.1432728767395,7,23,"[2, 1, 3, 4, 2, 0, 3, 1, 4, 1, 1, 1]",1.5763888888888886
The Bird in Hand,attraction,London,51.499566545216,-0.21564960479736,7,23,"[2, 3, 2, 2, 0, 0, 2, 4, 0, 5, 0, 3]",2.576388888888889
Kings Road Dental Care,poi,London,51.487906,-0.167385,6,23,"[0, 3, 2, 1, 0, 1, 2, 4, 2, 3, 0, 5]",2.409722222222222
King's College Hospital (Stop H4),poi,London,51.469311,-0.092312,6,23,"[1, 1, 5, 0, 2, 3, 2, 5, 1, 0, 0, 3]",2.909722222222222
"Tooting, St George's Hospital (SW17) (Stop HZ)",poi,London,51.42495,-0.17717,6,23,"[2, 2, 1, 0, 1, 0, 3, 4, 3, 2, 1, 4]",1.7430555555555554
Singapore Airlines SilverKris Lounge,poi,London,51.469474756609,-0.45891523361206,6,23,"[2, 2, 1, 3, 3, 3, 1, 1, 3, 1, 1, 2]",0.7430555555555557
Platform 7 (Heathrow Express),poi,London,51.517314214845,-0.17765581664392,6,23,"[1, 3, 2, 2, 0, 2, 2, 1, 6, 2, 1, 1]",2.076388888888889
Bunga Bunga,restaurant,London,51.478871,-0.170307,6,23,"[2, 3, 1, 2, 0, 1, 1, 3, 6, 2, 2, 0]",2.409722222222222
Carluccio's Ltd,restaurant,London,51.493418,-0.173779,6,23,"[1, 0, 3, 4, 1, 2, 2, 2, 2, 2, 3, 1]",1.0763888888888888
Gaucho,restaurant,London,51.492788,-0.167505,6,23,"[2, 1, 3, 1, 1, 3, 1, 2, 1, 4, 3, 1]",1.0763888888888888
Mascalzione,restaurant,London,51.464381,-0.214969,6,23,"[1, 5, 0, 3, 3, 3, 1, 3, 1, 1, 1, 1]",1.9097222222222223
Bavarian Beerhouse Old Street,restaurant,London,51.527867,-0.090614,6,23,"[1, 3, 3, 2, 4, 1, 0, 0, 3, 4, 1, 1]",1.9097222222222225
Guanabana Restaurant,restaurant,London,51.543344,-0.141932,6,23,"[0, 0, 4, 4, 5, 2, 2, 2, 1, 1, 2, 0]",2.576388888888889
Pizza Express,restaurant,London,51.528391,-0.127411,6,23,"[0, 4, 2, 1, 4, 2, 0, 1, 3, 0, 2, 4]",2.2430555555555554
Desperados,restaurant,London,51.481353,-0.010146,6,23,"[1, 4, 4, 2, 1, 0, 2, 3, 1, 1, 1, 3]",1.5763888888888886
The Bison & Bird,restaurant,London,51.462291,-0.137354,6,23,"[2, 2, 0, 0, 2, 0, 3, 4, 4, 4, 0, 2]",2.4097222222222223
Café Rouge,restaurant,London,51.498503,-0.162016,6,23,"[1, 0, 3, 3, 1, 1, 2, 4, 2, 1, 1, 4]",1.5763888888888886
101 Thai Kitchen,restaurant,London,51.493536,-0.244154,6,23,"[2, 1, 1, 1, 1, 3, 4, 1, 1, 3, 2, 3]",1.0763888888888888
Makan Cafe,restaurant,London,51.518753,-0.207094,6,23,"[2, 2, 0, 5, 1, 3, 1, 2, 4, 0, 1, 2]",2.0763888888888884
Gourmet Burger Kitchen,restaurant,London,51.492661,-0.193575,6,23,"[3, 1, 1, 0, 1, 0, 5, 2, 1, 4, 3, 2]",2.243055555555556
Fish!,restaurant,London,51.505813538638,-0.090146255008777,6,23,"[2, 1, 1, 1, 1, 5, 2, 3, 1, 2, 2, 2]",1.2430555555555556
Aladin,restaurant,London,51.520551890902,-0.071816146373749,6,23,"[2, 1, 1, 2, 1, 1, 0, 5, 5, 2, 2, 1]",2.243055555555555
Buckingham Palace Gardens,attraction,London,51.50112,-0.146041,6,23,"[2, 3, 0, 1, 3, 0, 4, 2, 3, 4, 1, 0]",2.076388888888889
Cirque le Soir,attraction,London,51.512949,-0.138897,6,23,"[3, 1, 1, 0, 3, 2, 0, 3, 1, 1, 5, 3]",2.076388888888889
The Blind Beggar,attraction,London,51.51993510036,-0.056812503302902,6,23,"[2, 0, 1, 5, 0, 2, 2, 4, 3, 2, 1, 1]",2.076388888888889
The Gunmakers,attraction,London,51.522623,-0.110329,6,23,"[2, 2, 4, 4, 0, 0, 2, 3, 1, 2, 1, 2]",1.5763888888888886
The Plough,attraction,London,51.497108636013,-0.31261682510376,6,23,"[5, 2, 2, 0, 3, 0, 1, 2, 2, 3, 2, 1]",1.7430555555555551
The Sir Richard Steele,attraction,London,51.546911097197,-0.1588690066973,6,23,"[0, 0, 5, 2, 3, 1, 3, 2, 2, 3, 2, 0]",2.0763888888888884
Virgin Active,attraction,London,51.531267030689,-0.10516405105591,6,23,"[3, 1, 2, 1, 0, 3, 2, 3, 3, 4, 0, 1]",1.576388888888889
The Gladstone,attraction,London,51.50091566729,-0.095036029815674,6,23,"[3, 2, 4, 0, 3, 1, 4, 2, 2, 0, 2, 0]",1.909722222222222
All Bar One,attraction,London,51.503926746983,-0.020383555804885,6,23,"[1, 2, 2, 3, 3, 0, 4, 1, 1, 3, 3, 0]",1.5763888888888886
Britannia,attraction,London,51.541515866667,-0.037691,6,23,"[3, 1, 3, 3, 3, 0, 1, 3, 0, 2, 1, 3]",1.4097222222222223
Chutney Mary,restaurant,London,51.479922,-0.186098,9,22,"[1, 1, 1, 3, 0, 3, 2, 1, 5, 1, 2, 2]",1.6388888888888893
Ganapati Restaurant,restaurant,London,51.469655,-0.073027,9,22,"[1, 3, 1, 1, 2, 1, 3, 2, 1, 4, 3, 0]",1.3055555555555556
Masters Super Fish,restaurant,London,51.500554,-0.107835,9,22,"[1, 1, 2, 4, 0, 0, 2, 0, 2, 4, 3, 3]",1.9722222222222223
No 67,restaurant,London,51.474126,-0.079677,9,22,"[2, 3, 1, 3, 0, 0, 1, 5, 2, 0, 3, 2]",2.1388888888888893
Boulangerie Bon Matin,restaurant,London,51.568454,-0.110742,8,22,"[1, 0, 2, 2, 3, 1, 3, 4, 1, 3, 2, 0]",1.4722222222222223
The Lion and Unicorn,restaurant,London,51.54796,-0.138964,8,22,"[0, 0, 0, 3, 3, 2, 4, 4, 2, 1, 2, 1]",1.972222222222222
Tortilla Hammersmith,restaurant,London,51.493027,-0.225485,8,22,"[2, 0, 2, 3, 1, 3, 2, 1, 2, 3, 3, 0]",1.1388888888888888
Cuba Libre,restaurant,London,51.535949,-0.103898,8,22,"[1, 1, 0, 3, 2, 3, 0, 2, 1, 5, 1, 3]",1.9722222222222223
The Havelock Tavern,restaurant,London,51.499256,-0.216074,8,22,"[2, 0, 5, 2, 1, 2, 1, 0, 1, 5, 2, 1]",2.4722222222222228
Osteria Basilico,restaurant,London,51.515338,-0.205854,8,22,"[1, 1, 1, 4, 0, 1, 1, 1, 5, 3, 1, 3]",2.138888888888889
Konditor & Cook Ltd,restaurant,London,51.504307,-0.110306,8,22,"[2, 4, 0, 2, 2, 0, 3, 3, 3, 0, 1, 2]",1.6388888888888886
The Sands End,restaurant,London,51.471092,-0.187186,8,22,"[4, 2, 2, 0, 1, 2, 3, 3, 2, 2, 1, 0]",1.3055555555555556
San Marino,restaurant,London,51.463797,-0.114495,8,22,"[0, 3, 0, 0, 1, 4, 3, 1, 4, 3, 2, 1]",2.138888888888889
Loong Kee Cafe,restaurant,London,51.531183,-0.076971,8,22,"[3, 2, 3, 2, 3, 1, 2, 0, 3, 2, 1, 0]",1.138888888888889
Chez Bob,restaurant,London,51.550887,-0.165695,8,22,"[1, 1, 3, 3, 3, 3, 0, 1, 3, 2, 1, 1]",1.138888888888889
Al Forno,restaurant,London,51.419812271258,-0.20187559495894,8,22,"[2, 0, 0, 1, 3, 1, 0, 3, 4, 4, 1, 3]",2.138888888888889
Rasa N16,restaurant,London,51.56218,-0.07635,8,22,"[1, 2, 0, 3, 3, 2, 4, 1, 1, 3, 0, 2]",1.4722222222222225
Queen's Arms,attraction,London,51.4991261,-0.180712775,8,22,"[2, 1, 3, 1, 0, 1, 3, 3, 2, 4, 1, 1]",1.305555555555556
The Mitre,attraction,London,51.507887721028,-0.20339727401733,8,22,"[2, 3, 1, 0, 2, 1, 4, 1, 3, 2, 0, 3]",1.4722222222222223
The Talbot,attraction,London,51.542655255253,-0.07914125919342,8,22,"[2, 4, 0, 4, 1, 4, 0, 2, 3, 0, 1, 1]",2.3055555555555554
Connaught Bar,attraction,London,51.510105,-0.1495779,8,22,"[2, 1, 1, 1, 3, 0, 2, 1, 3, 4, 4, 0]",1.8055555555555556
Goode & Wright,restaurant,London,51.517946,-0.206816,7,22,"[1, 3, 4, 0, 0, 4, 0, 3, 1, 3, 3, 0]",2.4722222222222223
Rapha Cycle Club,restaurant,London,51.510788,-0.136702,7,22,"[0, 0, 2, 1, 3, 1, 2, 3, 3, 1, 4, 2]",1.4722222222222223
Loaf,restaurant,London,51.522023,-0.135861,7,22,"[3, 1, 2, 1, 4, 0, 1, 2, 3, 4, 1, 0]",1.8055555555555556
Hare & Billet,restaurant,London,51.46806,0.003644,7,22,"[4, 2, 2, 4, 2, 0, 2, 0, 2, 1, 2, 1]",1.472222222222222
The Clarence,restaurant,London,51.446238,-0.149914,7,22,"[0, 2, 3, 2, 4, 1, 1, 2, 4, 1, 1, 1]",1.472222222222222
J Restaurant,restaurant,London,51.541309,-0.15704,7,22,"[0, 0, 2, 2, 1, 6, 4, 2, 2, 2, 1, 0]",2.805555555555556
Eight Over Eight,restaurant,London,51.483939,-0.177156,7,22,"[1, 3, 1, 0, 1, 1, 3, 4, 1, 5, 2, 0]",2.305555555555556
Coffee Cup,restaurant,London,51.555798,-0.177052,7,22,"[0, 1, 1, 1, 1, 2, 3, 3, 3, 2, 2, 3]",0.9722222222222223
The Rye,restaurant,London,51.464596,-0.065645,7,22,"[0, 0, 0, 1, 2, 2, 3, 5, 4, 3, 2, 0]",2.638888888888889
Pret A Manger,restaurant,London,51.511679,-0.127302,7,22,"[2, 2, 3, 1, 0, 0, 3, 5, 1, 1, 2, 2]",1.8055555555555556
The Dartmouth Castle,restaurant,London,51.494501,-0.227334,7,22,"[0, 3, 4, 1, 3, 1, 2, 2, 1, 1, 2, 2]",1.1388888888888893
My Old Dutch Pancake House,restaurant,London,51.502534,-0.191041,7,22,"[2, 2, 1, 1, 1, 0, 2, 6, 4, 1, 1, 1]",2.4722222222222223
Mangal 2 Restaurant,restaurant,London,51.550807,-0.075009,7,22,"[1, 2, 2, 0, 1, 0, 1, 4, 3, 6, 1, 1]",2.805555555555556
The Haberdashery,restaurant,London,51.581247,-0.123567,7,22,"[1, 0, 1, 2, 5, 2, 1, 3, 2, 2, 3, 0]",1.805555555555556
Las Iguanas,restaurant,London,51.503817,0.004828,7,22,"[2, 1, 2, 0, 1, 0, 2, 1, 4, 4, 1, 4]",1.9722222222222225
Corney & Barrow,restaurant,London,51.506163,-0.022453,7,22,"[0, 3, 1, 1, 1, 1, 2, 4, 3, 3, 1, 2]",1.3055555555555556
Cafe La Divina,restaurant,London,51.539129,-0.102532,7,22,"[2, 1, 0, 3, 1, 2, 2, 6, 2, 1, 2, 0]",2.305555555555556
222 Veggie Vegan,restaurant,London,51.486011,-0.203001,7,22,"[0, 1, 2, 2, 2, 0, 1, 2, 3, 2, 6, 1]",2.305555555555556
Silk Road,restaurant,London,51.473916,-0.089224,7,22,"[2, 3, 1, 3, 2, 1, 2, 3, 3, 0, 1, 1]",0.9722222222222223
Tompkins,restaurant,London,51.49931,-0.018279,7,22,"[1, 0, 3, 2, 1, 1, 6, 1, 4, 1, 2, 0]",2.805555555555556
Young Vic,restaurant,London,51.503053077214,-0.10749163050976,7,22,"[1, 3, 2, 1, 2, 1, 2, 0, 1, 6, 2, 1]",2.138888888888889
Fig & Olive,restaurant,London,51.540265,-0.102774,7,22,"[2, 1, 2, 1, 2, 3, 2, 1, 2, 2, 2, 2]",0.3055555555555555
Little Bay,restaurant,London,51.538728257974,-0.19095182418823,7,22,"[3, 0, 1, 3, 1, 1, 1, 3, 3, 2, 1, 3]",1.138888888888889
Toffs Fish & Chips,restaurant,London,51.589703208119,-0.14473971941422,7,22,"[3, 3, 1, 1, 2, 1, 2, 4, 1, 1, 2, 1]",0.9722222222222224
Le Delice,restaurant,London,51.58812549,-0.020754,7,22,"[1, 1, 3, 6, 3, 3, 0, 0, 2, 1, 0, 2]",2.8055555555555554
Incanto Restaurant and Delicatessen,restaurant,London,51.570584,-0.339476,7,22,"[0, 1, 2, 3, 2, 0, 1, 4, 3, 5, 1, 0]",2.4722222222222223
Everyman Baker St,attraction,London,51.520499,-0.156629,7,22,"[0, 1, 4, 2, 2, 4, 1, 1, 3, 1, 2, 1]",1.472222222222222
Curzon Mayfair Cinema,attraction,London,51.50651,-0.147975,7,22,"[0, 2, 0, 2, 1, 1, 3, 3, 1, 1, 4, 4]",1.805555555555556
Shakespeare's Head (Wetherspoon),attraction,London,51.51659461171,-0.11981964111328,7,22,"[1, 1, 3, 2, 3, 4, 0, 4, 1, 1, 2, 0]",1.8055555555555556
The Winchester,attraction,London,51.536282925243,-0.10173233283807,7,22,"[5, 3, 3, 2, 0, 0, 2, 1, 0, 3, 1, 2]",2.138888888888889
Theatre Royal,attraction,London,51.512845245373,-0.12040167030611,7,22,"[0, 1, 0, 0, 3, 3, 4, 3, 3, 2, 1, 2]",1.8055555555555556
Bushy Park,attraction,London,51.41119904455,-0.33456802368164,7,22,"[1, 2, 1, 1, 3, 2, 4, 1, 2, 1, 1, 3]",0.9722222222222223
The Star Of Kings,attraction,London,51.536371428792,-0.12218071805542,7,22,"[2, 2, 2, 2, 0, 3, 3, 0, 5, 0, 1, 2]",1.9722222222222223
The RE Hotel,attraction,London,51.531976793798,-0.061576247687558,7,22,"[1, 1, 2, 2, 0, 1, 2, 4, 1, 5, 2, 1]",1.805555555555556
Homerton University Hospital,poi,London,51.550818,-0.045901,6,22,"[0, 3, 0, 1, 5, 1, 3, 3, 3, 0, 0, 3]",2.6388888888888893
The Rum Kitchen,restaurant,London,51.517828,-0.203496,6,22,"[1, 1, 2, 2, 3, 0, 1, 1, 4, 2, 2, 3]",1.138888888888889
Yard,restaurant,London,51.525777,-0.084078,6,22,"[1, 1, 2, 2, 1, 4, 1, 4, 3, 0, 3, 0]",1.8055555555555556
Negril,restaurant,London,51.452714,-0.121354,6,22,"[3, 0, 1, 3, 1, 5, 0, 3, 1, 2, 2, 1]",1.9722222222222223
Smith's Bar and Grill,restaurant,London,51.519055,-0.179237,6,22,"[1, 1, 1, 4, 3, 2, 2, 1, 0, 3, 3, 1]",1.3055555555555556
Starbucks,restaurant,London,51.530911,-0.121983,6,22,"[0, 2, 1, 3, 0, 3, 2, 2, 1, 3, 4, 1]",1.472222222222222
Kruger,restaurant,London,51.505286,-0.021466,6,22,"[1, 3, 1, 2, 2, 1, 5, 2, 4, 1, 0, 0]",2.138888888888889
Cafe Brera,restaurant,London,51.505148,-0.022085,6,22,"[1, 3, 1, 1, 2, 3, 1, 3, 4, 1, 1, 1]",1.138888888888889
Starbucks Coffee,restaurant,London,51.50855,-0.07896,6,22,"[1, 1, 1, 0, 3, 1, 1, 2, 5, 4, 0, 3]",2.305555555555556
Beaufort House Chelsea,restaurant,London,51.484517,-0.175923,6,22,"[3, 1, 0, 3, 1, 2, 2, 2, 1, 2, 3, 2]",0.8055555555555557
Caffe Concerto,restaurant,London,51.501598,-0.19213,6,22,"[2, 2, 1, 0, 1, 3, 1, 2, 3, 4, 2, 1]",1.138888888888889
Trader Vic's,restaurant,London,51.505384,-0.150749,6,22,"[3, 0, 0, 4, 1, 2, 2, 0, 2, 3, 4, 1]",1.9722222222222223
Henry J Beans,restaurant,London,51.48685164456,-0.16912715367515,6,22,"[2, 0, 2, 2, 3, 1, 2, 3, 2, 1, 1, 3]",0.8055555555555555
Russell Square,attraction,London,51.52184,-0.125927,6,22,"[3, 0, 2, 3, 1, 1, 4, 1, 4, 1, 2, 0]",1.8055555555555556
Aspers Casino,attraction,London,51.543107,-0.006102,6,22,"[2, 3, 2, 2, 0, 0, 1, 2, 2, 4, 1, 3]",1.3055555555555558
Barfly,attraction,London,51.543026180287,-0.14911095791245,6,22,"[3, 1, 3, 1, 3, 2, 1, 1, 1, 1, 2, 3]",0.8055555555555557
Zetland Arms,attraction,London,51.493343228446,-0.1759216016997,6,22,"[1, 3, 3, 1, 4, 1, 0, 1, 2, 4, 1, 1]",1.638888888888889
The Curtains Up,attraction,London,51.489326609197,-0.20931959152222,6,22,"[3, 1, 3, 2, 0, 0, 2, 2, 2, 1, 4, 2]",1.3055555555555556
The Court,attraction,London,51.522950125159,-0.13681411743164,6,22,"[3, 2, 1, 2, 2, 3, 4, 1, 1, 0, 0, 3]",1.4722222222222223
The Kings Arms,attraction,London,51.501316388926,-0.076003074645996,6,22,"[0, 2, 2, 1, 4, 3, 2, 0, 2, 1, 4, 1]",1.638888888888889
Anderson & Co,restaurant,London,51.467123,-0.072431,9,21,"[3, 3, 3, 1, 1, 0, 1, 2, 2, 1, 3, 1]",1.0208333333333333
Caphe House,restaurant,London,51.500286,-0.081857,9,21,"[3, 0, 2, 0, 2, 2, 0, 1, 3, 3, 5, 0]",2.3541666666666665
Kiraku,restaurant,London,51.510244,-0.287362,9,21,"[4, 0, 0, 3, 0, 3, 3, 0, 2, 4, 2, 0]",2.5208333333333335
The Butcher's Hook,restaurant,London,51.480233,-0.189179,8,21,"[0, 1, 2, 2, 2, 2, 3, 1, 3, 4, 1, 0]",1.3541666666666667
Harris and Hoole,restaurant,London,51.546168,-0.479471,8,21,"[5, 0, 0, 2, 1, 1, 0, 1, 3, 2, 2, 4]",2.3541666666666665
Meat People,restaurant,London,51.536627,-0.101089,8,21,"[1, 1, 1, 5, 3, 1, 1, 2, 3, 1, 1, 1]",1.5208333333333333
My Old Dutch,restaurant,London,51.486546,-0.170895,8,21,"[0, 2, 1, 2, 0, 4, 1, 2, 4, 2, 3, 0]",1.8541666666666667
Little Georgia Cafe,restaurant,London,51.533277,-0.06529,8,21,"[2, 2, 0, 0, 4, 0, 3, 2, 0, 2, 2, 4]",2.0208333333333335
The Fish Club,restaurant,London,51.459978,-0.177992,8,21,"[2, 2, 1, 4, 3, 2, 2, 0, 1, 2, 2, 0]",1.1875
Nightingale,restaurant,London,51.441627,-0.154292,8,21,"[0, 0, 2, 2, 3, 2, 1, 2, 2, 2, 2, 3]",0.8541666666666666
The De Beauvoir Deli Co.,restaurant,London,51.54151,-0.084824,8,21,"[1, 0, 1, 3, 1, 1, 3, 4, 2, 1, 2, 2]",1.1875
Hubbub Catering,restaurant,London,51.492166,-0.024226,8,21,"[1, 1, 2, 1, 2, 2, 2, 3, 5, 1, 1, 0]",1.5208333333333333
Hot Pepper Jelly,restaurant,London,51.580338,-0.122747,8,21,"[0, 0, 2, 3, 5, 4, 0, 1, 3, 1, 1, 1]",2.5208333333333335
Forester,restaurant,London,51.506084,-0.320481,8,21,"[2, 0, 0, 3, 4, 2, 4, 0, 2, 0, 1, 3]",2.1875
The Gate,restaurant,London,51.490381,-0.225482,8,21,"[1, 1, 0, 2, 0, 0, 3, 2, 4, 5, 3, 0]",2.6875
Cote Brasserie,restaurant,London,51.515133,-0.194057,8,21,"[1, 3, 2, 2, 1, 1, 3, 0, 1, 1, 2, 4]",1.1875
Cambridge Theatre,attraction,London,51.513658495352,-0.12675393168608,8,21,"[2, 1, 1, 3, 4, 0, 1, 1, 1, 2, 5, 0]",2.1875
The Pipeline,attraction,London,51.517202810076,-0.076940339157477,8,21,"[3, 1, 3, 4, 1, 1, 2, 2, 1, 0, 2, 1]",1.1875
The Carpenters Arms,attraction,London,51.523931412159,-0.067344903945923,8,21,"[1, 1, 3, 2, 3, 2, 4, 0, 1, 1, 3, 0]",1.5208333333333333
The Prince of Teck,attraction,London,51.49264137,-0.193683,8,21,"[2, 2, 4, 4, 1, 2, 0, 2, 0, 2, 2, 0]",1.6875
"RSA (Royal Society for the Encouragement of Arts, Manufactures and Commerce)",poi,London,51.509463631328,-0.12267351150513,7,21,"[0, 2, 4, 1, 3, 1, 0, 1, 6, 1, 1, 1]",2.8541666666666665
Reilly Rocket,restaurant,London,51.54511,-0.076076,7,21,"[0, 2, 1, 3, 2, 1, 4, 1, 2, 3, 1, 1]",1.1875
Gourmet Burger Kitchen,restaurant,London,51.543,-0.007635,7,21,"[1, 1, 3, 2, 1, 0, 0, 5, 1, 2, 3, 2]",1.8541666666666667
Goodman,restaurant,London,51.501409,-0.018678,7,21,"[2, 1, 1, 2, 1, 3, 2, 1, 2, 5, 1, 0]",1.5208333333333333
O'Neill's,restaurant,London,51.590126,-0.144177,7,21,"[2, 2, 0, 1, 3, 0, 2, 5, 2, 1, 0, 3]",2.0208333333333335
Red Art Cafe,restaurant,London,51.549945,-0.075408,7,21,"[1, 3, 1, 2, 2, 1, 3, 0, 1, 2, 3, 2]",0.8541666666666666
Trattoria Sapori,restaurant,London,51.552019,-0.085737,7,21,"[2, 1, 0, 1, 0, 5, 2, 1, 2, 2, 4, 1]",2.0208333333333335
Hare & Tortoise,restaurant,London,51.462023,-0.221288,7,21,"[0, 0, 1, 2, 2, 2, 2, 3, 4, 3, 2, 0]",1.5208333333333333
Perfect Blend,restaurant,London,51.437659,-0.127047,7,21,"[2, 1, 3, 3, 2, 0, 5, 1, 1, 2, 0, 1]",1.8541666666666667
Peyton and Byrne,restaurant,London,51.529985,-0.127014,7,21,"[1, 1, 0, 2, 2, 2, 5, 5, 1, 2, 0, 0]",2.6875
Costa Coffee,restaurant,London,51.49907,-0.133467,7,21,"[0, 1, 1, 1, 1, 4, 1, 2, 2, 2, 3, 3]",1.1875
La Porchetta Pizzeria,restaurant,London,51.54354,-0.151046,7,21,"[3, 1, 1, 0, 1, 3, 6, 0, 2, 1, 2, 1]",2.5208333333333335
Best Mangal II,restaurant,London,51.491182,-0.207273,7,21,"[2, 0, 1, 2, 3, 1, 2, 1, 2, 1, 4, 2]",1.0208333333333333
Windmill Tavern,restaurant,London,51.502898,-0.108133,7,21,"[2, 2, 1, 3, 4, 0, 1, 2, 1, 2, 3, 0]",1.3541666666666667
La Bottega,restaurant,London,51.494746,-0.148752,7,21,"[3, 1, 4, 0, 2, 1, 2, 2, 1, 3, 2, 0]",1.3541666666666667
FM Mangal,restaurant,London,51.473699,-0.089382,7,21,"[1, 1, 3, 2, 0, 1, 3, 5, 2, 1, 1, 1]",1.6875
Namo,restaurant,London,51.538205,-0.043931,7,21,"[3, 2, 3, 4, 1, 1, 1, 1, 3, 0, 2, 0]",1.5208333333333333
Fantasia,restaurant,London,51.463978,-0.141756,7,21,"[1, 2, 3, 4, 3, 1, 0, 1, 2, 2, 1, 1]",1.1875
Cafe Laville,restaurant,London,51.524537,-0.176984,7,21,"[1, 2, 1, 1, 0, 1, 5, 5, 3, 0, 2, 0]",2.8541666666666665
The Quilon Restaurant & Bar,restaurant,London,51.498833884953,-0.13754736979637,7,21,"[1, 0, 3, 2, 3, 1, 2, 0, 5, 1, 2, 1]",1.8541666666666667
Kings Place,restaurant,London,51.534750868625,-0.1219654083252,7,21,"[4, 1, 1, 2, 0, 3, 2, 2, 5, 1, 0, 0]",2.3541666666666665
Jam Circus,restaurant,London,51.455936,-0.036619,7,21,"[4, 2, 1, 0, 2, 2, 1, 0, 2, 2, 4, 1]",1.5208333333333333
Starbucks,restaurant,London,51.50297266764,-0.01922607421875,7,21,"[2, 3, 3, 2, 2, 0, 4, 2, 3, 0, 0, 0]",1.8541666666666667
The Marquis Of Westminster,restaurant,London,51.491838,-0.140899,7,21,"[2, 1, 1, 3, 2, 3, 2, 3, 2, 2, 0, 0]",1.0208333333333333
Paul,restaurant,London,51.494443524906,-0.17422020435333,7,21,"[3, 0, 2, 3, 1, 4, 1, 2, 2, 0, 3, 0]",1.6875
Gaucho,restaurant,London,51.456908,-0.305534,7,21,"[0, 1, 3, 3, 1, 1, 2, 5, 2, 0, 2, 1]",1.8541666666666667
Saturday Farmers' Market,restaurant,London,51.491068,-0.160209,7,21,"[0, 1, 1, 6, 2, 4, 1, 1, 1, 2, 1, 1]",2.5208333333333335
Patisserie Valerie,restaurant,London,51.51941696931,-0.16900778689301,7,21,"[1, 3, 1, 1, 4, 1, 0, 1, 2, 3, 2, 2]",1.1875
The Palm Tree,attraction,London,51.528916097704,-0.040493613365423,7,21,"[1, 0, 5, 2, 2, 2, 3, 1, 0, 3, 1, 1]",1.8541666666666667
The Punch Bowl,attraction,London,51.508982195331,-0.14926683600559,7,21,"[1, 2, 0, 2, 1, 3, 1, 3, 2, 1, 2, 3]",0.8541666666666666
Dog & Fox,attraction,London,51.425008963343,-0.21766662597656,7,21,"[1, 2, 1, 3, 0, 0, 0, 2, 2, 4, 2, 4]",1.8541666666666667
The Terrace,attraction,London,51.420844,-0.205691,7,21,"[2, 5, 1, 0, 3, 1, 1, 3, 1, 0, 2, 2]",1.8541666666666667
The Royal Albert,attraction,London,51.475301,-0.028699636459351,7,21,"[0, 1, 3, 0, 2, 2, 1, 3, 5, 3, 1, 0]",2.1875
Kingston Hospital,poi,London,51.414216,-0.282064,6,21,"[0, 2, 5, 1, 1, 1, 0, 3, 2, 1, 1, 4]",2.1875
Canary Wharf London Underground Station,poi,London,51.503618800372,-0.019620358943939,6,21,"[2, 1, 0, 1, 2, 2, 3, 2, 4, 3, 1, 0]",1.3541666666666667
City Hall (Greater London Authority),poi,London,51.50481587479,-0.078749656677246,6,21,"[1, 5, 2, 0, 2, 1, 2, 3, 1, 1, 2, 1]",1.5208333333333333
Bromley South (Stop B),poi,London,51.400661,0.016652,6,21,"[4, 1, 2, 1, 0, 2, 1, 2, 0, 4, 2, 2]",1.5208333333333333
Creperie Du Monde,restaurant,London,51.55312,-0.044779,6,21,"[1, 5, 3, 0, 2, 1, 2, 3, 3, 1, 0, 0]",2.1875
Floripa,restaurant,London,51.525852,-0.083383,6,21,"[0, 2, 3, 2, 3, 1, 3, 2, 0, 2, 1, 2]",1.0208333333333333
The Loft Clapham,restaurant,London,51.463376,-0.133339,6,21,"[4, 2, 1, 1, 1, 1, 0, 3, 4, 1, 3, 0]",1.8541666666666667
Yi-Ban,restaurant,London,51.507771,0.040798,6,21,"[1, 2, 1, 2, 3, 1, 1, 0, 1, 4, 3, 2]",1.1875
Del'Aziz - Swiss Cottage,restaurant,London,51.542067,-0.173009,6,21,"[0, 0, 1, 1, 4, 0, 3, 2, 1, 4, 4, 1]",2.3541666666666665
Rossopomodoro Chelsea,restaurant,London,51.485574,-0.181805,6,21,"[1, 2, 1, 2, 2, 2, 1, 4, 2, 1, 2, 1]",0.6875
Gaucho,restaurant,London,51.505461,-0.027968,6,21,"[0, 2, 3, 2, 0, 1, 1, 3, 3, 3, 3, 0]",1.5208333333333333
The Plough,restaurant,London,51.449418,-0.074457,6,21,"[0, 2, 0, 3, 2, 3, 1, 3, 2, 2, 1, 2]",1.0208333333333333
Mess Cafe,restaurant,London,51.54812,-0.056871,6,21,"[2, 1, 1, 1, 2, 3, 1, 2, 3, 4, 1, 0]",1.1875
Wagamama,restaurant,London,51.507294,-0.092458,6,21,"[1, 2, 5, 1, 2, 1, 2, 1, 4, 1, 1, 0]",1.8541666666666667
Prince Regent,restaurant,London,51.521476,-0.15206,6,21,"[2, 2, 1, 5, 1, 3, 1, 1, 1, 3, 1, 0]",1.6875
Queen Of Sheba,restaurant,London,51.517264,-0.17147,6,21,"[1, 2, 2, 0, 3, 2, 2, 2, 3, 3, 1, 0]",1.0208333333333333
Starbucks,restaurant,London,51.51044066745,-0.12692895607251,6,21,"[1, 0, 2, 1, 3, 0, 1, 6, 0, 3, 2, 2]",2.6875
Pho,restaurant,London,51.507173201365,-0.22137880325317,6,21,"[1, 3, 0, 3, 2, 1, 2, 3, 2, 3, 0, 1]",1.1875
C&R Restaurant,restaurant,London,51.515449525306,-0.19168174653466,6,21,"[0, 2, 1, 4, 1, 1, 3, 3, 3, 0, 2, 1]",1.5208333333333333
Nando's,restaurant,London,51.531134,-0.122403,6,21,"[3, 1, 2, 4, 1, 1, 3, 2, 1, 2, 0, 1]",1.1875
The Terrace Coffee Shop,restaurant,London,51.409325284546,-0.30555725097656,6,21,"[4, 1, 1, 2, 1, 3, 2, 2, 1, 2, 1, 1]",0.8541666666666666
Benugo,restaurant,London,51.503187144634,-0.11239798843284,6,21,"[1, 1, 0, 1, 2, 3, 5, 1, 3, 0, 2, 2]",1.8541666666666667
Kenwood House,attraction,London,51.571545,-0.16734,6,21,"[1, 1, 2, 1, 2, 2, 3, 1, 2, 1, 4, 1]",0.8541666666666666
Crystal Palace National Sports Centre,attraction,London,51.419095,-0.068858,6,21,"[4, 0, 2, 2, 1, 3, 1, 2, 1, 1, 2, 2]",1.0208333333333333
Peckham Rye Park,attraction,London,51.458508,-0.062963,6,21,"[0, 2, 4, 1, 2, 0, 4, 3, 1, 3, 1, 0]",2.0208333333333335
Plan B,attraction,London,51.464447021484,-0.11441767215729,6,21,"[2, 3, 1, 3, 0, 1, 1, 2, 2, 1, 3, 2]",0.8541666666666666
The Devonshire,attraction,London,51.446812642556,-0.14895915985107,6,21,"[0, 2, 3, 4, 1, 2, 2, 2, 1, 1, 3, 0]",1.3541666666666667
Harold Pinter Theatre,attraction,London,51.509624204557,-0.13175386192784,6,21,"[2, 2, 2, 0, 0, 2, 4, 3, 4, 0, 1, 1]",1.8541666666666667
Pride of Paddington,attraction,London,51.515194,-0.17640436,6,21,"[0, 1, 3, 2, 2, 2, 1, 3, 2, 1, 4, 0]",1.3541666666666667
Comptons,attraction,London,51.512671440952,-0.13264142749155,6,21,"[0, 2, 6, 3, 3, 1, 2, 0, 1, 2, 0, 1]",2.6875
The Elephant's Head,attraction,London,51.540778094051,-0.14406670945983,6,21,"[2, 1, 1, 1, 1, 1, 3, 3, 1, 5, 1, 1]",1.5208333333333333
Lansdowne Pub,attraction,London,51.541336445695,-0.15333993965127,6,21,"[2, 1, 1, 1, 3, 2, 1, 5, 0, 4, 0, 1]",2.1875
The Redchurch,attraction,London,51.524670061414,-0.072312480851709,6,21,"[0, 3, 1, 2, 3, 2, 3, 1, 2, 3, 0, 1]",1.1875
Passing Clouds,attraction,London,51.542334969102,-0.075531005859375,6,21,"[0, 5, 1, 3, 1, 2, 0, 1, 1, 2, 3, 2]",1.8541666666666667
The Real Greek,restaurant,London,51.542531,-0.008294,9,20,"[2, 0, 1, 1, 2, 0, 2, 3, 3, 3, 3, 0]",1.3888888888888893
The Spence Bakery,restaurant,London,51.561421,-0.081825,9,20,"[3, 1, 3, 0, 0, 2, 2, 1, 2, 2, 3, 1]",1.0555555555555556
The Old Nuns Head,restaurant,London,51.465168,-0.059454,9,20,"[0, 5, 1, 2, 0, 3, 1, 2, 1, 3, 0, 2]",2.0555555555555554
The Clapton Hart,attraction,London,51.55773478142,-0.056239435206517,9,20,"[0, 1, 0, 2, 6, 2, 2, 1, 1, 3, 0, 2]",2.555555555555556
The Assembly House,attraction,London,51.550845140377,-0.14063358306885,9,20,"[2, 2, 2, 1, 4, 0, 3, 2, 0, 1, 3, 0]",1.5555555555555556
BA Galleries First Lounge,poi,London,51.469488123267,-0.45960187911987,8,20,"[3, 2, 0, 2, 1, 0, 1, 2, 2, 2, 2, 3]",0.888888888888889
Curators Coffee Studio,restaurant,London,51.512117,-0.082579,8,20,"[3, 2, 2, 3, 0, 0, 2, 1, 4, 3, 0, 0]",1.888888888888889
Tortilla,restaurant,London,51.508124,-0.126574,8,20,"[1, 0, 2, 2, 1, 5, 0, 1, 1, 3, 2, 2]",1.722222222222222
Black & Blue Restaurants,restaurant,London,51.515951,-0.151156,8,20,"[1, 2, 1, 2, 1, 4, 2, 1, 3, 0, 2, 1]",1.0555555555555556
Blueprint Cafe,restaurant,London,51.502804,-0.071894,8,20,"[0, 1, 1, 3, 2, 2, 3, 2, 2, 1, 1, 2]",0.7222222222222222
Gem,restaurant,London,51.542862,-0.10301,8,20,"[1, 4, 1, 2, 1, 1, 3, 1, 2, 2, 2, 0]",1.0555555555555554
64th&Social,restaurant,London,51.46369,-0.133088,8,20,"[3, 0, 3, 3, 3, 1, 2, 3, 0, 0, 1, 1]",1.5555555555555554
Green Papaya,restaurant,London,51.540441,-0.055594,8,20,"[0, 2, 3, 4, 5, 1, 1, 2, 1, 1, 0, 0]",2.388888888888889
The Somers Town Coffee House,restaurant,London,51.529912,-0.130206,8,20,"[0, 0, 1, 3, 2, 0, 1, 3, 3, 5, 0, 2]",2.388888888888889
Japanika,restaurant,London,51.520217,-0.0731,8,20,"[0, 0, 2, 2, 1, 2, 0, 6, 2, 0, 3, 2]",2.7222222222222228
San Gennaro,restaurant,London,51.476412,-0.148567,8,20,"[1, 4, 3, 1, 2, 2, 0, 3, 2, 1, 0, 1]",1.3888888888888886
Annie's,restaurant,London,51.484669,-0.277806,8,20,"[0, 1, 1, 4, 3, 1, 2, 2, 2, 3, 1, 0]",1.3888888888888886
Stingray Cafe,restaurant,London,51.556058,-0.139134,8,20,"[0, 2, 1, 0, 2, 3, 0, 5, 3, 1, 1, 2]",2.0555555555555554
The Regency Club,restaurant,London,51.594152,-0.284499,8,20,"[1, 0, 1, 4, 0, 4, 1, 3, 2, 1, 3, 0]",2.0555555555555554
Constancia Argentine Grill,restaurant,London,51.5001095568,-0.078630097903717,8,20,"[1, 2, 3, 1, 2, 3, 2, 2, 2, 1, 1, 0]",0.7222222222222223
The Bull,attraction,London,51.537443,-0.103032,8,20,"[2, 1, 2, 2, 3, 2, 3, 1, 1, 1, 1, 1]",0.5555555555555556
The Mitre,attraction,London,51.512329105056,-0.17833911611125,8,20,"[2, 1, 3, 3, 0, 6, 0, 1, 1, 1, 0, 2]",2.722222222222222
Alexandra Park,attraction,London,51.593282143772,-0.12591361999512,8,20,"[1, 1, 0, 1, 5, 2, 1, 2, 2, 3, 2, 0]",1.722222222222222
Barnet Hospital,poi,London,51.651257,-0.215948,7,20,"[2, 1, 2, 2, 2, 1, 3, 0, 0, 5, 1, 1]",1.7222222222222217
All Star Lanes,restaurant,London,51.543236,-0.007634,7,20,"[1, 2, 0, 2, 0, 2, 0, 2, 4, 4, 1, 2]",1.7222222222222217
Haggerston Espresso Room,restaurant,London,51.538976,-0.077686,7,20,"[1, 0, 2, 1, 2, 4, 0, 3, 1, 3, 2, 1]",1.3888888888888886
House of Wolf,restaurant,London,51.542048,-0.103128,7,20,"[3, 2, 0, 0, 1, 2, 1, 2, 1, 1, 4, 3]",1.3888888888888886
The Salt House,restaurant,London,51.537524,-0.18447,7,20,"[0, 0, 4, 1, 3, 3, 4, 1, 0, 1, 1, 2]",2.055555555555555
The Butcher & Grill,restaurant,London,51.479051,-0.167465,7,20,"[1, 4, 1, 2, 3, 0, 1, 2, 0, 3, 2, 1]",1.3888888888888886
The Alice House Queens Park,restaurant,London,51.534789,-0.204652,7,20,"[1, 2, 1, 2, 1, 2, 1, 3, 2, 3, 1, 1]",0.5555555555555556
Konnigans,restaurant,London,51.460148,-0.188769,7,20,"[0, 0, 1, 5, 4, 2, 2, 3, 1, 1, 0, 1]",2.3888888888888884
Starbucks,restaurant,London,51.494922,-0.046454,7,20,"[0, 1, 3, 2, 1, 5, 2, 1, 2, 1, 1, 1]",1.5555555555555551
The Woodins Shades,restaurant,London,51.518284,-0.079579,7,20,"[1, 1, 4, 1, 4, 2, 0, 2, 1, 2, 2, 0]",1.5555555555555554
Wilton Way Cafe,restaurant,London,51.545701,-0.061426,7,20,"[2, 2, 2, 0, 1, 0, 0, 2, 4, 4, 1, 2]",1.722222222222222
Wagamama,restaurant,London,51.519793,-0.075685,7,20,"[0, 2, 2, 0, 2, 2, 3, 2, 4, 1, 2, 0]",1.3888888888888886
Masala Zone Camden Town,restaurant,London,51.53849,-0.143757,7,20,"[2, 1, 3, 1, 1, 2, 0, 2, 0, 2, 3, 3]",1.0555555555555556
Lisboa Patisserie,restaurant,London,51.522384,-0.207551,7,20,"[0, 0, 2, 0, 3, 2, 4, 2, 1, 2, 2, 2]",1.3888888888888886
Al Boccon di'vino,restaurant,London,51.459536,-0.304596,7,20,"[0, 1, 2, 1, 2, 1, 2, 3, 3, 4, 0, 1]",1.3888888888888886
Le Cochonnet,restaurant,London,51.527563,-0.190082,7,20,"[0, 2, 0, 3, 3, 3, 3, 4, 0, 0, 2, 0]",2.2222222222222223
The Tea Rooms,restaurant,London,51.561514,-0.08163,7,20,"[1, 0, 2, 1, 1, 0, 3, 1, 4, 2, 0, 5]",2.388888888888889
Al Arez Cafe,restaurant,London,51.51603,-0.16466,7,20,"[1, 1, 2, 2, 2, 1, 2, 3, 2, 2, 2, 0]",0.5555555555555557
Foxtrot Oscar,restaurant,London,51.485937,-0.161511,7,20,"[2, 0, 0, 1, 1, 1, 2, 1, 6, 1, 4, 1]",2.7222222222222214
Nandos,restaurant,London,51.520757,-0.074771,7,20,"[3, 3, 3, 1, 1, 2, 0, 1, 4, 2, 0, 0]",1.7222222222222223
The Gate,restaurant,London,51.598252,-0.119663,7,20,"[3, 1, 0, 2, 0, 1, 4, 3, 1, 2, 3, 0]",1.7222222222222223
Stein's Bavarian Restaurant,restaurant,London,51.455534,-0.30401766300201,7,20,"[1, 0, 3, 3, 2, 0, 2, 5, 0, 2, 2, 0]",2.222222222222222
KIN Street Food,restaurant,London,51.521574952695,-0.10988473892212,7,20,"[5, 0, 3, 2, 2, 0, 1, 1, 2, 0, 1, 3]",2.055555555555556
LARDO,restaurant,London,51.543378883619,-0.057170022484904,7,20,"[0, 1, 0, 2, 1, 1, 5, 1, 4, 1, 3, 1]",2.222222222222222
The Soho Lounge,attraction,London,51.513309,-0.132172,7,20,"[1, 0, 2, 4, 0, 1, 1, 1, 3, 5, 2, 0]",2.388888888888889
King's Head,attraction,London,51.578281349591,-0.12425735592842,7,20,"[2, 2, 0, 1, 0, 3, 1, 0, 0, 5, 3, 3]",2.388888888888889
The Prince Bonaparte,attraction,London,51.517342814508,-0.19578382572797,7,20,"[1, 2, 2, 0, 1, 0, 1, 3, 2, 4, 1, 3]",1.3888888888888886
Piccadilly Theatre,attraction,London,51.510805216233,-0.1354804228294,7,20,"[0, 0, 1, 2, 0, 4, 4, 4, 1, 2, 0, 2]",2.3888888888888884
Queen Elizabeth Hall,attraction,London,51.506505415849,-0.11671900749207,7,20,"[0, 4, 1, 3, 2, 4, 3, 1, 1, 0, 0, 1]",2.055555555555555
Loftus Road Stadium,attraction,London,51.50927666177,-0.23221492767334,7,20,"[1, 2, 1, 1, 4, 1, 0, 4, 3, 2, 0, 1]",1.722222222222222
The Walmer Castle,attraction,London,51.515144130011,-0.199507,7,20,"[1, 1, 1, 3, 2, 2, 2, 3, 3, 1, 1, 0]",0.888888888888889
The Sun in Splendour,attraction,London,51.511020007225,-0.19770709706329,7,20,"[2, 2, 1, 2, 1, 1, 1, 3, 1, 2, 3, 1]",0.5555555555555556
Crown & Anchor,attraction,London,51.471366099764,-0.1127815246582,7,20,"[1, 0, 0, 4, 1, 2, 1, 3, 2, 2, 2, 2]",1.222222222222222
Emirates Lounge,poi,London,51.468940087085,-0.45842170715332,6,20,"[0, 1, 4, 1, 4, 2, 1, 2, 2, 1, 2, 0]",1.5555555555555554
Duck Egg Cafe,restaurant,London,51.461774,-0.113048,6,20,"[1, 3, 5, 1, 1, 1, 2, 2, 3, 0, 0, 1]",1.8888888888888886
Protein by DunneFrankowski,restaurant,London,51.523048,-0.079617,6,20,"[0, 0, 0, 2, 1, 2, 4, 2, 2, 2, 0, 5]",2.388888888888889
Benito's Hat,restaurant,London,51.531731,-0.124594,6,20,"[1, 1, 2, 2, 1, 3, 1, 2, 0, 4, 2, 1]",1.0555555555555556
Nando's,restaurant,London,51.515384,-0.191114,6,20,"[1, 4, 2, 1, 3, 1, 0, 3, 1, 3, 1, 0]",1.5555555555555554
Cafe Creperie,restaurant,London,51.515235,-0.150571,6,20,"[1, 2, 1, 3, 0, 2, 1, 5, 0, 1, 3, 1]",1.8888888888888886
Plateau,restaurant,London,51.504707,-0.016658,6,20,"[0, 1, 3, 0, 3, 2, 3, 2, 1, 2, 3, 0]",1.388888888888889
Le Pain Quotidien,restaurant,London,51.474567,-0.200808,6,20,"[2, 0, 2, 1, 0, 4, 2, 0, 3, 4, 1, 1]",1.8888888888888884
Marlborough,restaurant,London,51.455295,-0.296762,6,20,"[1, 0, 4, 1, 2, 5, 2, 1, 1, 0, 2, 1]",2.055555555555555
Supperclub,restaurant,London,51.519759,-0.206181,6,20,"[3, 2, 2, 1, 2, 2, 2, 3, 0, 0, 1, 2]",0.888888888888889
Gourmet Burger Kitchen,restaurant,London,51.503023,-0.019113,6,20,"[4, 1, 1, 0, 1, 2, 1, 1, 4, 1, 3, 1]",1.5555555555555554
T.G.I. Friday's,restaurant,London,51.41176,-0.305039,6,20,"[0, 1, 3, 4, 1, 0, 2, 1, 2, 3, 1, 2]",1.3888888888888886
Acoustic Cafe,restaurant,London,51.551161,-0.08603,6,20,"[1, 0, 0, 3, 1, 0, 3, 5, 2, 2, 2, 1]",2.055555555555555
Gourmet Burger Kitchen,restaurant,London,51.515803,-0.30211,6,20,"[5, 2, 0, 3, 2, 0, 1, 3, 0, 0, 2, 2]",2.222222222222222
Tortilla,restaurant,London,51.53246,-0.106377,6,20,"[1, 2, 3, 4, 3, 1, 1, 1, 3, 0, 0, 1]",1.5555555555555554
Gourmet Burger Kitchen,restaurant,London,51.481653,-0.010229,6,20,"[5, 0, 2, 0, 1, 2, 2, 1, 2, 3, 0, 2]",1.888888888888889
Noodle King,restaurant,London,51.525904,-0.069187,6,20,"[1, 1, 3, 1, 1, 2, 3, 3, 0, 1, 2, 2]",0.8888888888888888
19 Numara Bos Cirrik 2,restaurant,London,51.562229,-0.073455,6,20,"[2, 0, 3, 2, 3, 1, 0, 3, 2, 4, 0, 0]",1.888888888888889
Barrio North,restaurant,London,51.537342,-0.100717,6,20,"[1, 0, 1, 1, 2, 1, 2, 3, 3, 2, 1, 3]",0.888888888888889
Starbucks,restaurant,London,51.519023931188,-0.1687029004097,6,20,"[2, 2, 1, 3, 1, 5, 1, 0, 1, 2, 1, 1]",1.5555555555555551
Monmouth Coffee Company,restaurant,London,51.495609,-0.068276,6,20,"[2, 3, 1, 2, 0, 1, 4, 1, 2, 1, 2, 1]",1.0555555555555556
High Road Brasserie,restaurant,London,51.492772701266,-0.25472636292188,6,20,"[2, 1, 1, 1, 2, 3, 2, 2, 2, 2, 0, 2]",0.5555555555555556
Pinkberry,restaurant,London,51.543901136174,-0.0074742037030055,6,20,"[1, 1, 0, 4, 2, 3, 1, 2, 1, 3, 1, 1]",1.2222222222222223
Vue Cinemas - North Finchley,attraction,London,51.603819,-0.173413,6,20,"[2, 0, 1, 1, 3, 2, 2, 2, 2, 1, 3, 1]",0.7222222222222222
Buffalo Bar,attraction,London,51.546071,-0.103335,6,20,"[1, 2, 1, 3, 3, 0, 1, 3, 0, 3, 1, 2]",1.222222222222222
Corsica Studios,attraction,London,51.493609,-0.098704,6,20,"[2, 1, 2, 2, 0, 1, 1, 1, 4, 3, 3, 0]",1.388888888888889
The Minories,attraction,London,51.510643952352,-0.074861755530257,6,20,"[3, 2, 2, 1, 4, 1, 3, 2, 1, 0, 1, 0]",1.388888888888889
London Wetland Centre,attraction,London,51.47705302324,-0.23569107055664,6,20,"[2, 0, 3, 1, 2, 1, 4, 1, 3, 1, 2, 0]",1.3888888888888886
Princess of Wales,attraction,London,51.540364858291,-0.15421468740809,6,20,"[1, 1, 2, 3, 3, 1, 1, 4, 1, 0, 2, 1]",1.2222222222222223
The Bridge House,attraction,London,51.520994163502,-0.18421411514282,6,20,"[1, 1, 2, 2, 5, 1, 3, 3, 0, 1, 1, 0]",1.8888888888888886
Crown & Sceptre,attraction,London,51.519171201121,-0.14076655436531,6,20,"[0, 1, 1, 5, 3, 1, 1, 3, 2, 2, 0, 1]",1.8888888888888886
The Angel,attraction,London,51.524765823245,-0.4334020614624,6,20,"[1, 1, 1, 3, 1, 4, 3, 4, 0, 0, 2, 0]",2.0555555555555554
Bounce,attraction,London,51.518050049177,-0.1084041595459,6,20,"[0, 2, 3, 0, 1, 3, 0, 0, 1, 5, 3, 2]",2.388888888888889
Primrose Bakery,restaurant,London,51.539806,-0.151161,9,19,"[1, 1, 1, 2, 0, 3, 0, 2, 2, 2, 4, 1]",1.2430555555555556
Local Hero,restaurant,London,51.476346,-0.204714,9,19,"[0, 3, 1, 1, 0, 2, 2, 1, 2, 1, 4, 2]",1.2430555555555556
The Palmerston,restaurant,London,51.45802,-0.075074,9,19,"[0, 2, 3, 0, 1, 1, 1, 1, 3, 1, 6, 0]",2.743055555555556
Marco Pierre White's King's Rd. Steakhouse,restaurant,London,51.483998,-0.17704,8,19,"[0, 1, 1, 2, 2, 1, 2, 1, 2, 5, 2, 0]",1.576388888888889
Moomba Restaurant & Bar,restaurant,London,51.464148,-0.21611,8,19,"[2, 1, 1, 6, 2, 1, 0, 2, 0, 1, 1, 2]",2.243055555555556
Okawari,restaurant,London,51.512366,-0.305818,8,19,"[0, 4, 1, 1, 2, 4, 1, 0, 1, 1, 2, 2]",1.5763888888888893
Carluccio's,restaurant,London,51.492535,-0.262546,8,19,"[2, 1, 3, 2, 0, 0, 0, 3, 2, 4, 2, 0]",1.7430555555555556
Melrose and Morgan,restaurant,London,51.540229,-0.150652,8,19,"[3, 0, 0, 2, 5, 1, 1, 3, 1, 0, 2, 1]",2.076388888888889
Il Bacio Express,restaurant,London,51.562319,-0.078251,8,19,"[3, 2, 0, 0, 1, 0, 3, 3, 3, 2, 2, 0]",1.5763888888888886
Maedah Grill,restaurant,London,51.516908,-0.065363,8,19,"[1, 2, 1, 1, 0, 1, 1, 4, 2, 0, 3, 3]",1.4097222222222223
Carluccio's Caffè,restaurant,London,51.538034,-0.102364,8,19,"[1, 2, 0, 1, 1, 2, 1, 3, 2, 3, 1, 2]",0.7430555555555554
Blue Ginger Bar,restaurant,London,51.587187,-0.302454,8,19,"[1, 1, 2, 3, 1, 5, 0, 2, 2, 1, 0, 1]",1.7430555555555556
Caravaggio,restaurant,London,51.47389,-0.089417,8,19,"[0, 3, 1, 2, 1, 0, 1, 4, 1, 1, 3, 2]",1.4097222222222223
Phat Phuc Noodle Bar,restaurant,London,51.487682,-0.16907,8,19,"[1, 3, 5, 1, 1, 0, 1, 4, 2, 1, 0, 0]",2.409722222222222
Abu Zaad,restaurant,London,51.505619,-0.227575,8,19,"[2, 0, 3, 3, 2, 2, 2, 2, 1, 1, 1, 0]",0.9097222222222222
St Pancras Grand Brasserie & Champagne Bar,restaurant,London,51.529901,-0.126255,8,19,"[2, 0, 1, 1, 2, 1, 0, 5, 1, 3, 1, 2]",1.7430555555555556
Maggie's,restaurant,London,51.46547,-0.011271,8,19,"[0, 2, 3, 2, 1, 1, 2, 3, 1, 1, 3, 0]",1.076388888888889
Highgate Cemetery,attraction,London,51.566827015462,-0.14681339263916,8,19,"[0, 1, 3, 0, 2, 0, 2, 1, 3, 4, 1, 2]",1.576388888888889
Baglioni Hotel,attraction,London,51.501771847178,-0.18470949069146,8,19,"[1, 1, 2, 0, 4, 1, 2, 0, 2, 3, 1, 2]",1.2430555555555556
The Arch Hotel,attraction,London,51.516026031907,-0.15980353667,8,19,"[4, 0, 1, 2, 0, 4, 3, 0, 2, 1, 1, 1]",1.9097222222222225
Duke of York Square,attraction,London,51.491497694493,-0.1592481136322,8,19,"[1, 1, 2, 1, 2, 3, 3, 1, 1, 3, 1, 0]",0.9097222222222224
Bardens Boudoir,attraction,London,51.551632370259,-0.075053172787733,8,19,"[0, 3, 3, 2, 3, 1, 0, 0, 1, 2, 3, 1]",1.409722222222222
The Grafton,attraction,London,51.546698877167,-0.14443692440174,8,19,"[2, 1, 5, 3, 1, 3, 0, 0, 1, 0, 2, 1]",2.076388888888889
The Lucky Pig Cocktail Bar,attraction,London,51.520848128336,-0.14234894565663,8,19,"[0, 0, 2, 2, 1, 1, 0, 2, 2, 3, 1, 5]",1.909722222222222
Great Ormond Street Hospital,poi,London,51.522502,-0.120783,7,19,"[0, 1, 0, 1, 3, 3, 2, 3, 1, 4, 1, 0]",1.7430555555555556
The Guardian,poi,London,51.534697478484,-0.12194395065308,7,19,"[0, 1, 3, 3, 0, 1, 2, 2, 3, 0, 1, 3]",1.409722222222222
Le Pain Quotidien,restaurant,London,51.506336,-0.091441,7,19,"[0, 1, 2, 2, 2, 2, 0, 4, 3, 1, 1, 1]",1.243055555555556
Fabrica 584,restaurant,London,51.54579,-0.075631,7,19,"[4, 2, 4, 1, 0, 1, 2, 1, 1, 0, 0, 3]",1.909722222222222
Pret A Manger,restaurant,London,51.532281,-0.126941,7,19,"[0, 2, 3, 0, 2, 1, 3, 0, 5, 1, 1, 1]",2.0763888888888893
White Rabbit,restaurant,London,51.548496,-0.076215,7,19,"[0, 3, 0, 2, 1, 0, 3, 1, 1, 1, 6, 1]",2.743055555555556
Franco Manca,restaurant,London,51.458196,-0.166158,7,19,"[1, 1, 0, 4, 1, 3, 0, 3, 2, 2, 1, 1]",1.4097222222222223
Greenberry Café,restaurant,London,51.542009,-0.156495,7,19,"[1, 1, 2, 2, 2, 1, 3, 3, 1, 0, 0, 3]",1.076388888888889
The Vine,restaurant,London,51.554815,-0.144863,7,19,"[2, 1, 3, 1, 0, 0, 5, 1, 1, 0, 3, 2]",2.076388888888889
Lonsdale,restaurant,London,51.514765,-0.201385,7,19,"[2, 1, 2, 1, 0, 1, 0, 3, 0, 2, 4, 3]",1.5763888888888893
The Bell & Crown,restaurant,London,51.48699,-0.283165,7,19,"[3, 1, 2, 0, 1, 2, 4, 4, 0, 1, 1, 0]",1.9097222222222223
Carluccio's,restaurant,London,51.515179,-0.194636,7,19,"[1, 2, 1, 0, 2, 1, 5, 3, 0, 0, 3, 1]",2.076388888888889
Domali Cafe,restaurant,London,51.41884,-0.082789,7,19,"[0, 1, 0, 3, 0, 3, 3, 3, 0, 2, 2, 2]",1.5763888888888886
Mike's Cafe,restaurant,London,51.515854,-0.205685,7,19,"[0, 0, 4, 0, 0, 2, 1, 3, 4, 2, 3, 0]",2.409722222222222
The Duke Of York,restaurant,London,51.534196,-0.171343,7,19,"[1, 2, 1, 3, 1, 0, 2, 2, 0, 4, 2, 1]",1.2430555555555556
Yo! Sushi,restaurant,London,51.507231,-0.221625,7,19,"[1, 1, 1, 2, 1, 2, 1, 3, 2, 1, 2, 2]",0.40972222222222215
Elephant Royale,restaurant,London,51.486123,-0.01362,7,19,"[2, 1, 1, 0, 2, 1, 4, 2, 4, 1, 1, 0]",1.5763888888888893
Clicia,restaurant,London,51.56207,-0.079059,7,19,"[2, 1, 3, 0, 2, 3, 2, 3, 0, 2, 1, 0]",1.2430555555555556
Gelateria Danieli,restaurant,London,51.460873,-0.305238,7,19,"[0, 0, 2, 3, 3, 4, 2, 2, 1, 1, 0, 1]",1.576388888888889
Wagamama,restaurant,London,51.422343,-0.209003,7,19,"[0, 2, 2, 0, 2, 2, 2, 4, 2, 1, 0, 2]",1.2430555555555558
Greensmiths,restaurant,London,51.499717648637,-0.11238431489086,7,19,"[0, 1, 3, 1, 2, 2, 2, 2, 0, 1, 4, 1]",1.2430555555555556
Suzu,restaurant,London,51.493181,-0.21952,7,19,"[0, 0, 1, 1, 3, 0, 4, 5, 2, 1, 1, 1]",2.4097222222222228
Daylesford Organic,restaurant,London,51.490572956376,-0.1532780641861,7,19,"[3, 2, 3, 0, 1, 1, 4, 3, 1, 1, 0, 0]",1.7430555555555554
The Diner,restaurant,London,51.532174,-0.217784,7,19,"[2, 1, 1, 2, 0, 5, 2, 2, 1, 0, 1, 2]",1.576388888888889
Studio North,attraction,London,51.537514,-0.091513,7,19,"[1, 1, 1, 1, 2, 1, 2, 0, 2, 5, 1, 2]",1.4097222222222223
Crystal Palace Park,attraction,London,51.42185,-0.072385,7,19,"[1, 0, 2, 0, 3, 1, 2, 2, 3, 1, 1, 3]",1.0763888888888888
The Camel,attraction,London,51.529019111196,-0.052166606015863,7,19,"[2, 1, 1, 1, 4, 1, 2, 1, 2, 3, 0, 1]",1.076388888888889
The Maynard Arms,attraction,London,51.581739921058,-0.12631595134735,7,19,"[2, 2, 1, 2, 3, 2, 1, 3, 0, 1, 1, 1]",0.7430555555555557
Nags Head,attraction,London,51.584075,-0.011293,7,19,"[3, 1, 0, 3, 2, 0, 4, 1, 3, 1, 1, 0]",1.743055555555556
Morpeth Arms,attraction,London,51.489344,-0.12859891,7,19,"[3, 0, 2, 2, 3, 1, 1, 4, 0, 0, 2, 1]",1.576388888888889
The Arts Club,attraction,London,51.508220840452,-0.14221057667065,7,19,"[1, 4, 3, 1, 3, 0, 2, 2, 0, 2, 0, 1]",1.576388888888889
The Pheasant Pub,attraction,London,51.485284775041,-0.4402095079422,7,19,"[1, 1, 0, 1, 3, 0, 1, 1, 3, 4, 2, 2]",1.4097222222222223
The Britannia,attraction,London,51.527964299749,-0.13307048120161,7,19,"[2, 0, 1, 2, 3, 2, 3, 0, 2, 0, 2, 2]",1.0763888888888888
The Albert,attraction,London,51.538769984252,-0.15253215724162,7,19,"[1, 0, 1, 0, 1, 3, 2, 4, 1, 2, 0, 4]",1.9097222222222223
Approach Tavern,attraction,London,51.531333773384,-0.051584243774414,7,19,"[2, 1, 2, 2, 2, 2, 0, 2, 1, 3, 1, 1]",0.5763888888888888
The Railway,attraction,London,51.465425099805,0.0090265769242706,7,19,"[4, 1, 0, 0, 1, 1, 1, 3, 4, 1, 1, 2]",1.743055555555556
High Road House,attraction,London,51.492753,-0.254755,7,19,"[2, 1, 3, 0, 0, 1, 0, 3, 1, 4, 2, 2]",1.576388888888889
The Grove,attraction,London,51.510284952801,-0.30528098344803,7,19,"[1, 1, 1, 3, 2, 1, 2, 1, 2, 2, 3, 0]",0.7430555555555555
The Albany,attraction,London,51.523457,-0.144062,7,19,"[1, 3, 0, 1, 0, 3, 2, 2, 2, 2, 2, 1]",0.9097222222222223
Colonel Fawcett,attraction,London,51.541847,-0.136106,7,19,"[2, 3, 2, 4, 0, 0, 2, 3, 1, 1, 1, 0]",1.576388888888889
The White Cross,attraction,London,51.458873764082,-0.30860424041748,7,19,"[1, 1, 4, 0, 2, 1, 3, 3, 1, 2, 0, 1]",1.4097222222222223
Kingston Station,poi,London,51.412538,-0.30119,6,19,"[0, 0, 0, 2, 1, 3, 3, 4, 5, 1, 0, 0]",2.909722222222222
Baker Street London Underground Station,poi,London,51.52265640249,-0.1568341255188,6,19,"[1, 2, 0, 0, 1, 0, 2, 2, 3, 3, 3, 2]",1.2430555555555556
Wildwood,restaurant,London,51.50308,-0.018595,6,19,"[0, 1, 1, 2, 4, 2, 1, 1, 2, 3, 0, 2]",1.2430555555555556
Burrito Cafe,restaurant,London,51.531333,-0.120826,6,19,"[3, 2, 1, 0, 2, 3, 1, 3, 1, 2, 1, 0]",1.076388888888889
Pak Awie,restaurant,London,51.516959,-0.170612,6,19,"[1, 0, 0, 0, 1, 2, 3, 4, 4, 1, 2, 1]",1.9097222222222223
