name,category,location,lat,lng,polarity,numReviews,monthly_reviews,review_variance
La Beppa Fioraia,restaurant,Tuscany,43.762836,11.260976,6,38,"[0, 2, 3, 5, 3, 3, 5, 3, 4, 4, 1, 5]",2.305555555555555
Il Santo Bevitore,restaurant,Tuscany,43.769119,11.246821,7,33,"[4, 3, 2, 3, 2, 2, 5, 2, 3, 5, 1, 1]",1.6875
Volume,restaurant,Tuscany,43.768289,11.24902,6,32,"[3, 2, 3, 1, 2, 0, 3, 4, 4, 1, 6, 3]",2.388888888888889
Lucca,attraction,Tuscany,43.841893637116,10.502926927866,6,32,"[1, 2, 4, 0, 6, 2, 4, 2, 2, 3, 4, 2]",2.388888888888889
Gusta Pizza,restaurant,Tuscany,43.76646,11.24874,7,31,"[1, 3, 4, 2, 4, 2, 3, 2, 3, 3, 1, 3]",0.9097222222222222
Artemio Franchi Stadium,attraction,Tuscany,43.781074,11.282079,6,30,"[4, 1, 3, 3, 2, 2, 4, 3, 4, 1, 2, 1]",1.25
Buca Mario,restaurant,Tuscany,43.772323,11.249181,7,27,"[3, 1, 1, 2, 4, 2, 4, 1, 1, 2, 4, 2]",1.3541666666666667
Strozzi Palace,attraction,Tuscany,43.771273,11.25199,7,27,"[6, 3, 4, 3, 2, 3, 3, 0, 2, 1, 0, 0]",3.0208333333333335
UCI Cinemas,attraction,Tuscany,43.772209431885,11.189188957214,6,27,"[1, 2, 5, 4, 3, 2, 0, 4, 2, 0, 1, 3]",2.3541666666666665
Grom,restaurant,Tuscany,43.319387,11.331294,7,25,"[1, 2, 2, 3, 3, 0, 3, 3, 0, 3, 3, 2]",1.2430555555555556
Ristorante Galileo,restaurant,Tuscany,43.712946,10.405124,6,25,"[2, 0, 3, 3, 0, 4, 1, 4, 1, 3, 2, 2]",1.7430555555555554
Le Carceri Snc,restaurant,Tuscany,43.7692,11.2686,6,25,"[1, 5, 1, 3, 0, 2, 4, 2, 1, 2, 3, 1]",1.909722222222222
Osteria San Giorgio,restaurant,Tuscany,43.844897,10.50359,6,24,"[0, 1, 5, 0, 2, 1, 2, 3, 3, 3, 2, 2]",1.8333333333333333
La Casalinga,restaurant,Tuscany,43.766584,11.248387,6,24,"[1, 2, 3, 2, 2, 0, 4, 2, 2, 1, 0, 5]",2.0
Cupola del Duomo,attraction,Tuscany,43.773154588683,11.256823539734,6,24,"[1, 0, 4, 2, 4, 5, 1, 1, 0, 4, 2, 0]",3.0
Gucci Museo,attraction,Tuscany,43.769624,11.256769,8,23,"[3, 0, 3, 1, 1, 2, 0, 5, 2, 3, 1, 2]",1.9097222222222217
Osteria dè Benci,restaurant,Tuscany,43.767849,11.259396,7,23,"[2, 1, 4, 3, 2, 1, 1, 2, 4, 0, 2, 1]",1.409722222222222
Antica Osteria da Divo,restaurant,Tuscany,43.318018,11.328237,7,23,"[3, 0, 3, 1, 3, 0, 2, 1, 2, 5, 1, 2]",1.909722222222222
Hotel Terme San Giovanni,attraction,Tuscany,43.280134,11.590844,7,23,"[5, 3, 2, 2, 1, 3, 1, 0, 2, 2, 1, 1]",1.5763888888888886
Pienza,attraction,Tuscany,43.077289288673,11.67760848999,7,23,"[1, 4, 1, 4, 2, 3, 2, 1, 2, 1, 1, 1]",1.2430555555555556
Spera,restaurant,Tuscany,43.785965,11.253837,6,23,"[1, 1, 2, 3, 2, 2, 5, 2, 1, 1, 2, 1]",1.2430555555555556
The Diner,restaurant,Tuscany,43.769993,11.258624,6,23,"[1, 1, 0, 3, 3, 2, 3, 3, 4, 1, 0, 2]",1.5763888888888886
Il Pizzaiuolo,restaurant,Tuscany,43.771154,11.266248,6,23,"[1, 1, 4, 5, 1, 1, 3, 0, 3, 2, 2, 0]",2.243055555555555
Osteria De' Peccatori,restaurant,Tuscany,43.77002394101,11.257612683716,6,23,"[1, 1, 1, 1, 1, 3, 3, 5, 2, 4, 1, 0]",2.0763888888888884
Il Gatto e La Volpe,restaurant,Tuscany,43.770520507956,11.258840560913,6,22,"[3, 1, 1, 3, 4, 2, 1, 3, 2, 1, 0, 1]",1.3055555555555556
Castiglione della Pescaia,attraction,Tuscany,42.763625844822,10.881037874323,6,22,"[0, 1, 2, 0, 3, 1, 2, 5, 5, 2, 1, 0]",2.805555555555556
Battistero di San Giovanni,attraction,Tuscany,43.773030634544,11.254978179932,6,22,"[0, 0, 1, 5, 1, 0, 3, 1, 4, 4, 2, 1]",2.805555555555556
Odeon Cinehall,attraction,Tuscany,43.771026,11.25245,8,21,"[2, 3, 2, 0, 4, 0, 4, 1, 2, 1, 2, 0]",1.8541666666666667
La Griglia di Varrone,restaurant,Tuscany,43.83219,10.494382,7,21,"[1, 3, 3, 0, 1, 2, 2, 3, 1, 0, 2, 3]",1.1875
Yellow Bar,restaurant,Tuscany,43.771088,11.257824,7,21,"[0, 2, 1, 1, 2, 0, 2, 0, 2, 4, 3, 4]",1.8541666666666667
Osteria Pepò,restaurant,Tuscany,43.776603,11.254644,7,21,"[2, 1, 1, 2, 3, 0, 1, 5, 0, 4, 2, 0]",2.3541666666666665
Trattoria Pallottino,restaurant,Tuscany,43.769832,11.259982,7,21,"[1, 1, 1, 1, 1, 1, 0, 1, 2, 5, 5, 2]",2.3541666666666665
Trattoria Papei,restaurant,Tuscany,43.317084,11.332463,7,21,"[0, 2, 1, 1, 2, 1, 3, 1, 2, 4, 3, 1]",1.1875
Ristorante Pizza Man,restaurant,Tuscany,43.768084,11.311632,6,21,"[3, 2, 0, 2, 1, 4, 3, 0, 0, 2, 1, 3]",1.6875
O'Munaciello,restaurant,Tuscany,43.767716,11.24668,6,21,"[1, 1, 2, 2, 5, 1, 1, 0, 3, 3, 1, 1]",1.6875
The Space Cinema,attraction,Tuscany,43.79040562079,11.228800220244,8,20,"[1, 4, 1, 5, 2, 0, 1, 2, 0, 1, 2, 1]",2.055555555555555
Duomo di Siena,attraction,Tuscany,43.31727339148,11.328777563062,7,20,"[2, 0, 2, 2, 0, 2, 2, 4, 2, 0, 3, 1]",1.3888888888888886
Pizzeria Senzanome,restaurant,Tuscany,43.786792,11.233558,6,20,"[0, 2, 2, 3, 0, 2, 0, 2, 0, 4, 2, 3]",1.7222222222222223
I Sette Peccati Srl,restaurant,Tuscany,43.799237,11.24588,6,20,"[4, 2, 4, 2, 0, 1, 0, 0, 0, 2, 1, 4]",2.3888888888888884
Giannino in San Lorenzo,restaurant,Tuscany,43.774312,11.254834,6,20,"[1, 0, 0, 1, 1, 0, 1, 4, 4, 2, 4, 2]",2.222222222222222
Rifrullo,attraction,Tuscany,43.764144002852,11.261415481567,6,20,"[1, 4, 1, 0, 1, 2, 2, 6, 1, 2, 0, 0]",2.888888888888889
The Space Cinema,attraction,Tuscany,43.547667,10.338157,8,19,"[0, 0, 3, 4, 3, 0, 0, 1, 2, 1, 3, 2]",1.9097222222222223
Stazione Campo Di Marte,poi,Tuscany,43.777581,11.276075,7,19,"[1, 3, 2, 2, 1, 1, 1, 0, 4, 1, 2, 1]",1.076388888888889
Ottavo Nano Srl,restaurant,Tuscany,43.840575,10.515093,7,19,"[2, 2, 3, 2, 0, 2, 0, 2, 1, 2, 1, 2]",0.7430555555555557
Numero 11,restaurant,Tuscany,43.713975707215,10.403337193049,7,19,"[0, 3, 1, 3, 4, 2, 0, 3, 2, 1, 0, 0]",1.9097222222222223
Boccon del Prete,restaurant,Tuscany,43.315999,11.330212,6,19,"[2, 3, 2, 2, 1, 1, 0, 3, 1, 1, 1, 2]",0.7430555555555557
Trattoria Pizzeria Toscana,restaurant,Tuscany,43.721717306267,10.397111315559,6,19,"[0, 0, 0, 3, 3, 4, 3, 2, 2, 2, 0, 0]",2.076388888888889
Basilica di San Miniato al Monte,attraction,Tuscany,43.759448,11.264937,8,18,"[0, 2, 0, 3, 0, 2, 1, 4, 1, 4, 1, 0]",2.0833333333333335
Trattoria Da Burde,restaurant,Tuscany,43.794094,11.18584,7,18,"[0, 2, 1, 2, 3, 2, 1, 1, 1, 1, 3, 1]",0.75
Finisterrae,restaurant,Tuscany,43.769009,11.262015,7,18,"[2, 0, 1, 2, 2, 0, 4, 0, 1, 3, 2, 1]",1.4166666666666667
Michelangelo,attraction,Tuscany,43.761809,11.268318,7,18,"[0, 0, 0, 0, 3, 5, 4, 1, 2, 1, 1, 1]",2.5833333333333335
Multiplex Omnia Center,attraction,Tuscany,43.87389069194,11.06237411499,7,18,"[3, 0, 4, 4, 1, 0, 1, 1, 2, 0, 1, 1]",1.9166666666666667
La Cité Libreriacafè,attraction,Tuscany,43.769297885718,11.245679343185,7,18,"[3, 2, 1, 2, 1, 0, 0, 0, 3, 2, 3, 1]",1.25
Zoe Bar,attraction,Tuscany,43.76504473511,11.258853971958,7,18,"[0, 1, 0, 2, 2, 1, 2, 2, 5, 2, 1, 0]",1.75
Il Montino,restaurant,Tuscany,43.718063,10.401692,6,18,"[0, 3, 1, 0, 2, 1, 1, 1, 3, 1, 1, 4]",1.4166666666666667
Lo Schiaccianoci,restaurant,Tuscany,43.709384,10.400552,6,18,"[0, 0, 3, 1, 1, 2, 1, 1, 2, 3, 1, 3]",1.0833333333333333
Il Vegetariano,restaurant,Tuscany,43.780732,11.257364,6,18,"[2, 1, 0, 2, 3, 2, 0, 1, 1, 3, 1, 2]",0.9166666666666666
Nerone,restaurant,Tuscany,43.778242,11.25073,6,18,"[0, 1, 0, 0, 2, 4, 3, 1, 2, 2, 0, 3]",1.75
Brac,restaurant,Tuscany,43.767605,11.258295,6,18,"[2, 3, 2, 2, 0, 0, 1, 2, 2, 0, 3, 1]",1.0833333333333333
Piazza del Vino,restaurant,Tuscany,43.773012,11.283116,6,18,"[2, 0, 2, 0, 4, 1, 3, 3, 0, 1, 2, 0]",1.75
Green Store,attraction,Tuscany,43.77462652444,11.284246444702,6,18,"[1, 1, 2, 0, 1, 1, 2, 2, 4, 2, 1, 1]",0.9166666666666666
Autodromo Internazionale Del Mugello,attraction,Tuscany,43.99688978843,11.372008323669,6,18,"[0, 3, 0, 1, 4, 1, 3, 2, 3, 1, 0, 0]",1.9166666666666667
Montalcino,attraction,Tuscany,43.057756145389,11.489838168648,6,18,"[1, 1, 2, 2, 1, 3, 0, 2, 3, 1, 1, 1]",0.75
Montepulciano,attraction,Tuscany,43.093151927447,11.78217270593,6,18,"[1, 4, 0, 1, 3, 1, 1, 1, 3, 0, 2, 1]",1.4166666666666667
Bagno Vignoni,attraction,Tuscany,43.028198918363,11.618918670738,8,17,"[2, 2, 0, 2, 1, 0, 2, 5, 1, 1, 1, 0]",1.7430555555555554
The Lion's Fountain Irish Pub,attraction,Tuscany,43.771496,11.261326,7,17,"[0, 1, 3, 0, 1, 0, 1, 4, 1, 1, 2, 3]",1.5763888888888886
Trattoria dall'Oste,restaurant,Tuscany,43.776015,11.24685,6,17,"[0, 2, 3, 0, 2, 2, 0, 1, 2, 4, 0, 1]",1.576388888888889
Beach Club,attraction,Tuscany,43.97896,10.142105,6,17,"[0, 1, 2, 2, 0, 2, 4, 5, 1, 0, 0, 0]",2.576388888888888
Viareggio,attraction,Tuscany,43.874695029171,10.25687456131,8,16,"[0, 2, 2, 1, 3, 0, 3, 4, 1, 0, 0, 0]",1.8888888888888893
Osteria Le Logge,restaurant,Tuscany,43.31847,11.333392,7,16,"[0, 0, 0, 0, 3, 3, 0, 3, 2, 1, 3, 1]",1.722222222222222
Osteria Nonna Gina,restaurant,Tuscany,43.314598,11.327225,7,16,"[0, 1, 1, 1, 1, 2, 1, 4, 1, 3, 1, 0]",1.2222222222222223
Bar Pasticceria Buselli,restaurant,Tuscany,43.711952000392,10.422034263611,7,16,"[0, 2, 1, 1, 2, 1, 1, 2, 4, 1, 0, 1]",1.0555555555555556
Il Teatro del Sale,restaurant,Tuscany,43.771121,11.266269,7,16,"[2, 2, 2, 1, 0, 2, 1, 1, 1, 1, 1, 2]",0.38888888888888884
Caffetteria delle Oblate,restaurant,Tuscany,43.772634,11.2595,7,16,"[1, 2, 1, 2, 2, 1, 1, 1, 1, 3, 0, 1]",0.5555555555555556
RivaReno,restaurant,Tuscany,43.771426,11.261263,7,16,"[0, 1, 2, 2, 3, 2, 0, 4, 1, 1, 0, 0]",1.5555555555555556
Terme Antica Querciolaia,attraction,Tuscany,43.292485,11.607137,7,16,"[0, 4, 1, 1, 0, 3, 0, 0, 4, 1, 0, 2]",2.2222222222222223
Piazza dell'Anfiteatro,attraction,Tuscany,43.84534129343,10.506106764078,7,16,"[0, 4, 1, 1, 1, 0, 2, 1, 3, 0, 1, 2]",1.3888888888888886
Piazza della Santissima Annunziata,attraction,Tuscany,43.776462519841,11.260626912117,7,16,"[2, 0, 0, 1, 2, 0, 2, 2, 4, 2, 0, 1]",1.388888888888889
Slowly,attraction,Tuscany,43.770233850996,11.252671480179,7,16,"[1, 2, 4, 0, 1, 1, 0, 0, 2, 3, 1, 1]",1.3888888888888886
Baracchina Bianca,restaurant,Tuscany,43.530096,10.305764,6,16,"[0, 1, 0, 1, 3, 1, 2, 5, 0, 1, 2, 0]",2.055555555555556
Osteria dei Cavalieri,restaurant,Tuscany,43.718461,10.400049,6,16,"[1, 2, 0, 1, 2, 0, 1, 2, 3, 2, 1, 1]",0.7222222222222222
Il Cardellino Srl,restaurant,Tuscany,43.402374,10.414385,6,16,"[0, 0, 1, 2, 2, 0, 2, 5, 0, 1, 1, 2]",1.888888888888889
Osteria Baralla,restaurant,Tuscany,43.845886,10.506112,6,16,"[0, 1, 2, 0, 0, 4, 2, 3, 1, 3, 0, 0]",1.888888888888889
Atlantic Oil,restaurant,Tuscany,43.744071,11.745864,6,16,"[1, 1, 0, 3, 3, 3, 1, 3, 1, 0, 0, 0]",1.555555555555556
Piazza Delle Vettovaglie,attraction,Tuscany,43.716961553036,10.401770174503,6,16,"[1, 2, 0, 2, 2, 1, 1, 0, 2, 2, 3, 0]",0.888888888888889
Fortezza da Basso,attraction,Tuscany,43.781830739953,11.248819828033,6,16,"[2, 0, 2, 3, 2, 1, 2, 1, 1, 1, 0, 1]",0.722222222222222
Piazza dei Pitti,attraction,Tuscany,43.765515,11.249673,6,16,"[1, 1, 3, 0, 3, 0, 0, 0, 2, 4, 1, 1]",1.7222222222222223
Bar Pasticceria Gaetano,restaurant,Tuscany,43.793886,11.21932,7,15,"[2, 0, 2, 1, 1, 2, 0, 0, 2, 0, 5, 0]",2.0208333333333335
Relais Firenze Stibbert,restaurant,Tuscany,43.788848205526,11.250987052917,7,15,"[2, 0, 3, 1, 2, 1, 2, 1, 1, 0, 0, 2]",0.8541666666666666
San Marco Museum,attraction,Tuscany,43.778459,11.25931,7,15,"[1, 0, 2, 1, 2, 0, 0, 2, 2, 2, 3, 0]",1.0208333333333333
Livorno,attraction,Tuscany,43.552187244967,10.307879447937,7,15,"[0, 0, 0, 0, 1, 3, 2, 3, 3, 1, 0, 2]",1.5208333333333333
Monteriggioni,attraction,Tuscany,43.390056803087,11.223659578229,7,15,"[1, 1, 1, 0, 2, 1, 3, 3, 0, 1, 0, 2]",1.0208333333333333
Gelatería di Piazza,restaurant,Tuscany,43.467389,11.043402,6,15,"[1, 1, 1, 2, 2, 3, 1, 3, 0, 0, 1, 0]",1.0208333333333333
Trattoria Osenna,restaurant,Tuscany,43.059147,11.605087,6,15,"[0, 0, 1, 1, 2, 0, 3, 3, 3, 2, 0, 0]",1.5208333333333333
Tea-Room Porta Giustizia,restaurant,Tuscany,43.317154447223,11.333508185991,6,15,"[0, 1, 1, 1, 1, 1, 1, 1, 0, 3, 1, 4]",1.1875
Gelateria Sottani,restaurant,Tuscany,43.78552842145,11.450665022857,6,15,"[1, 0, 3, 3, 1, 0, 2, 1, 1, 1, 1, 1]",0.8541666666666666
Bazeel,attraction,Tuscany,43.716527304989,10.401842594147,6,15,"[0, 1, 2, 0, 0, 3, 0, 3, 1, 1, 2, 2]",1.1875
Bar Pietrasantese,restaurant,Tuscany,43.957004749311,10.231243,8,14,"[1, 0, 1, 2, 2, 0, 4, 1, 1, 0, 0, 2]",1.3055555555555556
Chiesa di Orsanmichele,attraction,Tuscany,43.770716,11.255185,8,14,"[0, 2, 0, 3, 0, 0, 4, 0, 2, 1, 0, 2]",1.8055555555555554
Ristorante Taverna dei Poeti,restaurant,Tuscany,42.745834,10.377467,7,14,"[0, 1, 1, 0, 0, 3, 3, 3, 2, 0, 1, 0]",1.4722222222222223
Niwa,restaurant,Tuscany,43.778658098131,11.23917085476,7,14,"[1, 1, 2, 2, 1, 1, 2, 1, 0, 2, 0, 1]",0.47222222222222227
Piazza Napoleone,attraction,Tuscany,43.841264852461,10.50243268986,7,14,"[0, 1, 0, 3, 2, 0, 4, 1, 0, 1, 2, 0]",1.6388888888888886
Prato,attraction,Tuscany,43.880468150372,11.096781492233,7,14,"[0, 0, 1, 1, 3, 0, 2, 1, 1, 2, 0, 3]",1.138888888888889
Castellina in Chianti,attraction,Tuscany,43.471273575179,11.285415887833,7,14,"[0, 1, 0, 3, 1, 0, 0, 5, 1, 2, 1, 0]",2.138888888888889
Osteria Bernardo,restaurant,Tuscany,43.717317,10.404064,6,14,"[1, 3, 1, 0, 1, 2, 1, 1, 1, 1, 2, 0]",0.638888888888889
Grano Sallis,restaurant,Tuscany,43.847584,10.525268,6,14,"[1, 3, 1, 1, 3, 0, 0, 0, 1, 2, 2, 0]",1.138888888888889
Corsaro Verde,restaurant,Tuscany,43.881775,10.77196,6,14,"[0, 1, 0, 0, 2, 0, 2, 3, 1, 3, 2, 0]",1.3055555555555556
Ristorante Cinese La Fortuna,restaurant,Tuscany,43.72315,10.948607,6,14,"[3, 0, 1, 0, 1, 1, 2, 0, 3, 0, 2, 1]",1.138888888888889
Osteria Il Gallo Giallo,restaurant,Tuscany,43.648502,11.206265,6,14,"[2, 1, 1, 0, 2, 3, 1, 2, 0, 1, 0, 1]",0.8055555555555557
Trattoria da Giorgio,restaurant,Tuscany,43.773897,11.246069,6,14,"[0, 0, 0, 0, 2, 3, 2, 0, 2, 1, 3, 1]",1.3055555555555558
Hemingway,restaurant,Tuscany,43.768676,11.242725,6,14,"[4, 2, 2, 1, 0, 1, 0, 0, 1, 1, 1, 1]",1.138888888888889
Osteria Il Grattacielo,restaurant,Tuscany,43.320354,11.330852,6,14,"[1, 0, 3, 1, 1, 0, 1, 2, 1, 2, 1, 1]",0.638888888888889
Osteria del Teatro,restaurant,Tuscany,43.275822,11.985668,6,14,"[1, 0, 1, 0, 2, 0, 1, 2, 4, 2, 1, 0]",1.3055555555555556
Yagura,restaurant,Tuscany,43.770836791541,11.23955271853,6,14,"[3, 0, 2, 0, 0, 2, 2, 0, 1, 1, 1, 2]",0.9722222222222224
Pasticceria Querci,restaurant,Tuscany,43.789188988618,11.248111724854,6,14,"[0, 0, 1, 3, 0, 2, 0, 2, 2, 2, 1, 1]",0.9722222222222223
Wabi Sabi,restaurant,Tuscany,43.78403056394,11.272938251495,6,14,"[1, 2, 3, 0, 0, 0, 1, 3, 3, 0, 1, 0]",1.4722222222222223
Zoo di Pistoia,attraction,Tuscany,43.929428,10.865661,6,14,"[1, 0, 1, 4, 1, 0, 0, 4, 2, 1, 0, 0]",1.972222222222222
Space Electronic,attraction,Tuscany,43.773704,11.246295,6,14,"[2, 0, 1, 0, 2, 1, 3, 3, 0, 1, 0, 1]",1.138888888888889
Fiesole Musei,attraction,Tuscany,43.807531,11.294219,6,14,"[1, 0, 3, 1, 1, 2, 1, 1, 2, 2, 0, 0]",0.8055555555555555
Museo Galileo - Istituto e Museo di Storia della Scienza,attraction,Tuscany,43.767704,11.255887,6,14,"[0, 0, 5, 2, 0, 2, 0, 3, 0, 1, 1, 0]",2.305555555555556
Ristorante India,restaurant,Tuscany,43.807004,11.295909,9,13,"[3, 3, 1, 2, 0, 1, 0, 1, 1, 1, 0, 0]",1.076388888888889
Trattoria del Carmine,restaurant,Tuscany,43.769337,11.244866,8,13,"[1, 1, 0, 0, 0, 0, 1, 2, 1, 3, 3, 1]",1.0763888888888888
Cammillo Trattoria,restaurant,Tuscany,43.768024,11.249984,8,13,"[0, 0, 2, 1, 1, 1, 2, 1, 0, 1, 3, 1]",0.7430555555555555
O.k Bar,restaurant,Tuscany,43.775678,11.259787,8,13,"[1, 0, 1, 2, 2, 0, 4, 0, 1, 0, 2, 0]",1.4097222222222225
La Taverna di San Giuseppe,restaurant,Tuscany,43.315408510856,11.331691245764,8,13,"[1, 0, 0, 2, 5, 1, 0, 2, 2, 0, 0, 0]",2.076388888888889
Giardino delle Rose,attraction,Tuscany,43.762988,11.262823,8,13,"[0, 0, 1, 0, 3, 3, 1, 1, 0, 3, 1, 0]",1.4097222222222223
Abbazia Di San Galgano,attraction,Tuscany,43.149438408545,11.154792308807,8,13,"[0, 1, 2, 1, 0, 1, 2, 2, 3, 0, 0, 1]",0.9097222222222222
S.G.C. Fi-Pi-Li,poi,Tuscany,43.67657,10.463437,7,13,"[1, 1, 2, 4, 2, 0, 0, 1, 0, 0, 0, 2]",1.4097222222222225
Arezzo Fiere e Congressi,poi,Tuscany,43.469261982135,11.858892437071,7,13,"[3, 0, 1, 1, 1, 0, 0, 0, 2, 4, 1, 0]",1.576388888888889
Gelateria Cremeria Emma,restaurant,Tuscany,43.863068,10.246836,7,13,"[0, 0, 4, 0, 3, 1, 0, 4, 1, 0, 0, 0]",2.4097222222222223
Trattoria Il Campano,restaurant,Tuscany,43.717196,10.400942,7,13,"[0, 1, 1, 1, 0, 2, 1, 5, 2, 0, 0, 0]",1.9097222222222223
Gigi Trattoria,restaurant,Tuscany,43.844441,10.505883,7,13,"[0, 0, 0, 4, 2, 1, 1, 2, 0, 1, 0, 2]",1.4097222222222223
Il Gottino,restaurant,Tuscany,43.313347,10.515719,7,13,"[0, 1, 0, 0, 2, 1, 1, 3, 4, 1, 0, 0]",1.5763888888888886
Biscottificio Antonio Mattei,restaurant,Tuscany,43.879968,11.096465,7,13,"[0, 0, 1, 3, 3, 1, 0, 1, 0, 1, 3, 0]",1.4097222222222223
Osteria dell'Ignorante,restaurant,Tuscany,43.596666,11.115513,7,13,"[0, 0, 0, 0, 1, 2, 4, 1, 3, 0, 1, 1]",1.5763888888888886
Ristorante da Guido,restaurant,Tuscany,42.599374,11.291366,7,13,"[0, 0, 1, 0, 0, 3, 0, 3, 4, 0, 1, 1]",1.909722222222222
ZeB - Zuppa e Bollito,restaurant,Tuscany,43.764286,11.2614,7,13,"[0, 1, 2, 0, 1, 3, 0, 0, 3, 3, 0, 0]",1.576388888888889
Seven Apples - Discoteca,attraction,Tuscany,43.916095,10.208228,7,13,"[0, 1, 1, 1, 1, 0, 6, 1, 1, 0, 0, 1]",2.409722222222222
Torre Guinigi,attraction,Tuscany,43.843669,10.50699449,7,13,"[0, 0, 2, 1, 2, 0, 0, 2, 6, 0, 0, 0]",2.909722222222223
Pub San Paolo,attraction,Tuscany,43.318793727288,11.331220397744,7,13,"[0, 1, 0, 0, 2, 2, 1, 2, 1, 3, 0, 1]",0.9097222222222222
Stazione di Lucca,poi,Tuscany,43.837384402657,10.506167113781,6,13,"[0, 1, 2, 2, 2, 1, 2, 1, 1, 0, 1, 0]",0.5763888888888888
Firenze Rifredi,poi,Tuscany,43.800158,11.236402,6,13,"[1, 1, 1, 1, 1, 1, 1, 1, 0, 2, 2, 1]",0.24305555555555558
La Bottega Del Gelato S.R.L.,restaurant,Tuscany,43.716498,10.401947,6,13,"[0, 0, 0, 0, 0, 1, 2, 3, 4, 2, 1, 0]",1.7430555555555556
McDonald's Fornacette,restaurant,Tuscany,43.668567,10.596799,6,13,"[0, 1, 0, 1, 0, 0, 1, 2, 1, 4, 3, 0]",1.576388888888889
Le Vecchie Mura,restaurant,Tuscany,43.46696,11.044769,6,13,"[1, 0, 0, 1, 2, 2, 0, 4, 2, 0, 1, 0]",1.4097222222222223
La Divina Enoteca,restaurant,Tuscany,43.776999,11.252841,6,13,"[2, 0, 3, 1, 1, 1, 0, 1, 1, 2, 0, 1]",0.7430555555555557
Caffè Cibrèo,restaurant,Tuscany,43.771026,11.266376,6,13,"[0, 0, 2, 1, 3, 1, 1, 0, 1, 0, 4, 0]",1.576388888888889
Gelateria Mordilatte,restaurant,Tuscany,43.779104,11.296087,6,13,"[0, 0, 0, 1, 0, 2, 0, 3, 3, 1, 3, 0]",1.576388888888889
Bounty Srl,restaurant,Tuscany,43.768125,11.297587,6,13,"[1, 0, 0, 1, 0, 3, 0, 1, 3, 2, 2, 0]",1.2430555555555556
L'orto,restaurant,Tuscany,43.71900598403,10.948733366213,6,13,"[1, 0, 2, 3, 2, 1, 0, 1, 1, 1, 0, 1]",0.7430555555555557
Caffé Dogali,restaurant,Tuscany,43.77681,11.279749,6,13,"[0, 0, 1, 0, 1, 2, 1, 0, 2, 1, 3, 2]",0.9097222222222223
Museo del Tessuto,attraction,Tuscany,43.876587,11.098304,6,13,"[2, 1, 4, 1, 0, 0, 0, 1, 0, 3, 1, 0]",1.576388888888889
La Boulangerie Del Rifrullo,attraction,Tuscany,43.773424,11.25205244,6,13,"[0, 1, 0, 1, 2, 1, 1, 3, 1, 0, 1, 2]",0.7430555555555557
Museo Salvatore Ferragamo,attraction,Tuscany,43.769940413562,11.251278743148,6,13,"[3, 0, 1, 1, 1, 2, 1, 1, 2, 1, 0, 0]",0.7430555555555557
Ristorante La Reggia Degli Etruschi,restaurant,Tuscany,43.807573,11.289801,8,12,"[0, 0, 1, 2, 2, 3, 2, 0, 1, 1, 0, 0]",1.0
Il Giardino Di Barbano,restaurant,Tuscany,43.779059,11.253906,8,12,"[2, 0, 0, 2, 1, 0, 2, 2, 2, 1, 0, 0]",0.8333333333333334
Cinema Fulgor,attraction,Tuscany,43.773627,11.245173,8,12,"[0, 0, 1, 1, 1, 1, 2, 3, 0, 1, 0, 2]",0.8333333333333334
La Bodeguita,restaurant,Tuscany,43.554621,10.308716,7,12,"[0, 0, 1, 1, 2, 0, 4, 1, 1, 0, 1, 1]",1.1666666666666667
India,restaurant,Tuscany,43.718452,10.39547,7,12,"[0, 0, 3, 0, 2, 1, 0, 1, 1, 2, 0, 2]",1.0
Le Barrique WineBar,restaurant,Tuscany,43.88119,11.097315,7,12,"[0, 0, 3, 2, 0, 0, 1, 0, 1, 2, 2, 1]",1.0
Caffè Rainer,restaurant,Tuscany,43.781072,11.256871,7,12,"[0, 0, 3, 1, 0, 1, 0, 1, 3, 1, 2, 0]",1.1666666666666667
Pizzeria I Tarocchi,restaurant,Tuscany,43.765207,11.258643,7,12,"[1, 0, 1, 1, 0, 1, 1, 4, 2, 1, 0, 0]",1.1666666666666667
Osteria Enoteca Osticcio,restaurant,Tuscany,43.057921,11.490536,7,12,"[1, 0, 0, 1, 2, 0, 2, 1, 0, 5, 0, 0]",2.0
Caminia,restaurant,Tuscany,43.760607593135,11.28468355,7,12,"[0, 1, 1, 2, 1, 3, 1, 0, 1, 0, 1, 1]",0.6666666666666666
Ristoro Di Lamole,restaurant,Tuscany,43.54939,11.35583311,7,12,"[0, 0, 0, 0, 0, 2, 3, 1, 4, 2, 0, 0]",1.8333333333333333
Antico Caffè Poliziano,restaurant,Tuscany,43.094341,11.78225,7,12,"[0, 1, 0, 1, 4, 0, 1, 3, 1, 0, 0, 1]",1.5
Le Café Dai Dai,attraction,Tuscany,43.410969,10.405269,7,12,"[0, 0, 0, 1, 2, 5, 2, 2, 0, 0, 0, 0]",2.1666666666666665
Bolgheri,attraction,Tuscany,43.233893095061,10.617889165878,7,12,"[0, 0, 1, 0, 4, 1, 2, 3, 1, 0, 0, 0]",1.6666666666666667
J. J. Hill,attraction,Tuscany,43.806938836978,11.292452305541,7,12,"[1, 1, 2, 0, 1, 3, 2, 0, 1, 1, 0, 0]",0.8333333333333334
Enoteca Vecchio Mulino,restaurant,Tuscany,44.109357,10.412889,6,12,"[0, 0, 0, 1, 2, 2, 1, 1, 0, 2, 2, 1]",0.6666666666666666
Ristorante Giglio,restaurant,Tuscany,43.839621,10.503926,6,12,"[1, 1, 0, 1, 0, 2, 2, 0, 2, 0, 1, 2]",0.6666666666666666
Pizzaman,restaurant,Tuscany,43.774156,11.222224,6,12,"[0, 2, 0, 0, 1, 0, 1, 3, 3, 2, 0, 0]",1.3333333333333333
Ristorante Trattoria La Carabaccia - Firenze,restaurant,Tuscany,43.775192,11.243441,6,12,"[0, 1, 1, 1, 0, 1, 2, 1, 1, 2, 0, 2]",0.5
I' Brindellone,restaurant,Tuscany,43.768607,11.24281,6,12,"[0, 1, 0, 0, 0, 3, 1, 2, 0, 2, 2, 1]",1.0
Cipiglio Srl,restaurant,Tuscany,43.788924,11.250779,6,12,"[0, 1, 0, 0, 2, 2, 1, 0, 1, 2, 1, 2]",0.6666666666666666
Trattoria Gargani,restaurant,Tuscany,43.771976,11.249149,6,12,"[0, 0, 1, 4, 3, 1, 1, 1, 0, 0, 0, 1]",1.5
Fuori Porta,restaurant,Tuscany,43.763465,11.261673,6,12,"[1, 0, 0, 2, 1, 1, 2, 2, 1, 1, 1, 0]",0.5
Pizzeria Gattabuia,restaurant,Tuscany,43.764148,11.26976,6,12,"[2, 1, 0, 1, 2, 0, 3, 1, 0, 2, 0, 0]",1.0
I' Giuggiolo,restaurant,Tuscany,43.785145,11.293471,6,12,"[0, 0, 1, 0, 1, 4, 0, 1, 2, 1, 0, 2]",1.3333333333333333
1950 American Diner,restaurant,Tuscany,43.665144,10.660092,6,12,"[0, 1, 2, 2, 0, 0, 4, 1, 1, 0, 1, 0]",1.3333333333333333
Cum Quibus,restaurant,Tuscany,43.469796082578,11.041686307778,6,12,"[0, 0, 0, 1, 0, 0, 2, 2, 3, 3, 0, 1]",1.3333333333333333
L' Orto di Casole,restaurant,Tuscany,43.340591009161,11.051423999041,6,12,"[0, 0, 0, 0, 4, 1, 1, 0, 0, 4, 2, 0]",2.1666666666666665
Tijuana 2,restaurant,Tuscany,43.775944133028,11.241450990744,6,12,"[2, 1, 0, 1, 0, 2, 2, 1, 1, 0, 1, 1]",0.5
Parco di San Donato,attraction,Tuscany,43.793649969893,11.225838661194,6,12,"[3, 0, 0, 1, 3, 0, 2, 1, 1, 1, 0, 0]",1.1666666666666667
Loggia dei Lanzi,attraction,Tuscany,43.769109,11.255549,6,12,"[0, 1, 1, 3, 1, 1, 0, 0, 1, 4, 0, 0]",1.5
Pitigliano,attraction,Tuscany,42.634173598466,11.669165697521,6,12,"[0, 0, 1, 0, 1, 0, 2, 5, 3, 0, 0, 0]",2.3333333333333335
Sei Divino,attraction,Tuscany,43.771886,11.246572136879,9,11,"[1, 0, 3, 0, 1, 0, 0, 1, 2, 2, 0, 1]",0.9097222222222222
The Alchemist Club,attraction,Tuscany,43.712117938757,10.948502597553,8,11,"[3, 1, 1, 2, 0, 0, 0, 0, 1, 0, 2, 1]",0.9097222222222222
La Merenda delle Papere,restaurant,Tuscany,43.233778,10.61765,7,11,"[2, 0, 2, 0, 2, 1, 1, 1, 1, 0, 1, 0]",0.576388888888889
Antica Trattoria Sanesi,restaurant,Tuscany,43.77079,11.106531,7,11,"[0, 1, 0, 0, 2, 0, 3, 1, 0, 1, 1, 2]",0.9097222222222223
L'officina della Cucina Popolare,restaurant,Tuscany,43.421259,11.113674,7,11,"[1, 0, 0, 1, 1, 1, 1, 5, 0, 0, 1, 0]",1.7430555555555551
La Rotonda,restaurant,Tuscany,43.775103,11.242941,7,11,"[0, 0, 2, 2, 0, 0, 1, 0, 2, 3, 1, 0]",1.076388888888889
Momoyama,restaurant,Tuscany,43.769297,11.245664,7,11,"[1, 1, 0, 1, 1, 1, 2, 0, 2, 1, 1, 0]",0.4097222222222223
Ristorante Vincanto,restaurant,Tuscany,43.773258,11.250015,7,11,"[0, 2, 1, 2, 0, 0, 3, 1, 2, 0, 0, 0]",1.076388888888889
Ristorante La Mencia,restaurant,Tuscany,43.235583,11.558859,7,11,"[0, 0, 0, 1, 1, 0, 3, 3, 2, 0, 1, 0]",1.2430555555555556
Fattoria Pulcino,restaurant,Tuscany,43.076506,11.784767,7,11,"[1, 0, 2, 0, 2, 1, 0, 2, 1, 1, 0, 1]",0.5763888888888891
Fratelli Briganti,restaurant,Tuscany,43.792206613713,11.250461362611,7,11,"[1, 0, 3, 1, 0, 0, 0, 1, 2, 3, 0, 0]",1.2430555555555556
Tombolo Talasso Resort,attraction,Tuscany,43.179531,10.539469,7,11,"[1, 0, 0, 1, 2, 1, 3, 0, 0, 2, 0, 1]",0.9097222222222224
Camping Voltoncino,attraction,Tuscany,42.527698,11.188354,7,11,"[0, 0, 0, 2, 0, 2, 1, 6, 0, 0, 0, 0]",2.909722222222222
Giardino di San Marco,attraction,Tuscany,43.778183,11.259264,7,11,"[0, 1, 2, 2, 3, 0, 1, 0, 1, 0, 1, 0]",0.9097222222222223
Certaldo,attraction,Tuscany,43.545935263778,11.039199829102,7,11,"[0, 1, 1, 1, 3, 0, 2, 0, 1, 0, 1, 1]",0.7430555555555557
Hidron,attraction,Tuscany,43.820049044015,11.121107634239,7,11,"[1, 1, 1, 0, 1, 1, 3, 0, 1, 0, 1, 1]",0.576388888888889
The Fiddler's Elbow - Irish Pub,attraction,Tuscany,43.773146791773,11.249570251199,7,11,"[0, 1, 1, 1, 2, 0, 1, 1, 2, 2, 0, 0]",0.576388888888889
Finnegan's,attraction,Tuscany,43.780572,11.258923,7,11,"[0, 1, 3, 0, 1, 1, 0, 1, 0, 2, 1, 1]",0.7430555555555557
Terme Sensoriali,attraction,Tuscany,43.041237177311,11.817297448996,7,11,"[0, 0, 0, 0, 1, 4, 1, 1, 0, 2, 1, 1]",1.2430555555555556
Ristorante Novelli,restaurant,Tuscany,43.488197,10.329924,6,11,"[1, 0, 0, 0, 1, 1, 1, 3, 2, 0, 1, 1]",0.7430555555555557
Il Buongustaio,restaurant,Tuscany,43.855877,10.566623,6,11,"[0, 1, 1, 3, 1, 3, 0, 0, 0, 0, 1, 1]",1.0763888888888893
Gelateria Dalmazia,restaurant,Tuscany,43.79666,11.240414,6,11,"[0, 2, 0, 1, 3, 1, 1, 0, 2, 0, 1, 0]",0.9097222222222223
Mama's Bakery,restaurant,Tuscany,43.766055,11.245105,6,11,"[1, 1, 1, 1, 0, 1, 0, 1, 1, 2, 2, 0]",0.40972222222222227
Compagnia dei Vinattieri,restaurant,Tuscany,43.319936,11.33045,6,11,"[1, 3, 1, 0, 0, 1, 1, 2, 1, 0, 1, 0]",0.7430555555555557
Rossobirra,restaurant,Tuscany,43.726728,11.766926,6,11,"[0, 0, 0, 1, 1, 1, 2, 3, 1, 0, 1, 1]",0.7430555555555557
Bondi Focacceria,restaurant,Tuscany,43.776749172767,11.252215934611,6,11,"[1, 0, 2, 1, 0, 2, 0, 0, 1, 1, 2, 1]",0.576388888888889
Mastrociliegia,restaurant,Tuscany,43.771380609093,11.261398886245,6,11,"[0, 0, 0, 1, 1, 1, 0, 1, 2, 1, 3, 1]",0.7430555555555557
UCI Cinemas,attraction,Tuscany,43.844368034752,11.137321432458,6,11,"[0, 0, 0, 1, 0, 1, 0, 2, 2, 1, 2, 2]",0.7430555555555557
Piazza del Mercato Nuovo,attraction,Tuscany,43.770028541787,11.254251301289,6,11,"[1, 1, 2, 0, 1, 0, 5, 0, 0, 0, 0, 1]",1.909722222222222
Piazza Grande,attraction,Tuscany,43.464759981815,11.884184745575,6,11,"[1, 1, 0, 1, 1, 0, 2, 1, 3, 1, 0, 0]",0.7430555555555557
La Cucina del Garga,restaurant,Tuscany,43.778577330755,11.255042552948,9,10,"[0, 0, 0, 0, 2, 0, 1, 0, 1, 1, 2, 3]",0.972222222222222
Oibò,attraction,Tuscany,43.769110452366,11.260503530502,9,10,"[0, 0, 2, 2, 0, 2, 1, 1, 0, 1, 1, 0]",0.6388888888888888
Monticchiello,attraction,Tuscany,43.067925772843,11.724569547882,9,10,"[1, 0, 2, 0, 1, 1, 1, 2, 1, 1, 0, 0]",0.47222222222222215
Ristorante le Meraviglie,restaurant,Tuscany,43.910084,10.339642,8,10,"[0, 0, 1, 0, 3, 1, 2, 0, 1, 0, 0, 2]",0.9722222222222223
La Buca di Sant'Antonio,restaurant,Tuscany,43.842694,10.501578,8,10,"[0, 2, 1, 2, 1, 0, 1, 0, 2, 0, 1, 0]",0.6388888888888888
Terrazza 45,restaurant,Tuscany,43.806771,11.292072,8,10,"[1, 2, 0, 1, 1, 0, 3, 2, 0, 0, 0, 0]",0.9722222222222222
Antica Osteria Agania,restaurant,Tuscany,43.464127681951,11.882302371463,8,10,"[1, 1, 1, 0, 2, 0, 2, 0, 3, 0, 0, 0]",0.9722222222222222
Tomo sushi,restaurant,Tuscany,43.801708,11.190109,7,10,"[0, 3, 1, 1, 1, 0, 0, 2, 1, 0, 0, 1]",0.8055555555555557
Il Profeta,restaurant,Tuscany,43.77334,11.244306,7,10,"[0, 0, 1, 0, 1, 2, 0, 4, 1, 1, 0, 0]",1.3055555555555556
Botteghina Caffe' Pitti,restaurant,Tuscany,43.765603,11.24907,7,10,"[1, 0, 0, 3, 1, 2, 0, 1, 1, 1, 0, 0]",0.8055555555555557
Bar Serafini Sas,restaurant,Tuscany,43.770552,11.271967,7,10,"[0, 0, 2, 3, 2, 1, 0, 1, 0, 0, 0, 1]",0.9722222222222222
Oltre Il Giardino,restaurant,Tuscany,43.544804,11.315257,7,10,"[0, 0, 0, 1, 1, 1, 2, 3, 1, 1, 0, 0]",0.8055555555555557
Hostaria Il Buco,restaurant,Tuscany,43.057357,11.830031,7,10,"[1, 1, 0, 2, 0, 0, 0, 0, 1, 4, 1, 0]",1.3055555555555556
Asuka,restaurant,Tuscany,43.71025506375,10.420985904103,7,10,"[1, 1, 2, 0, 2, 0, 1, 2, 0, 1, 0, 0]",0.6388888888888888
Ristorante Pizzeria Elisa,restaurant,Tuscany,43.299196129173,10.493833376077,7,10,"[0, 0, 2, 0, 0, 2, 2, 4, 0, 0, 0, 0]",1.6388888888888882
Il Doretto,restaurant,Tuscany,43.338588955094,10.505893528461,7,10,"[0, 1, 1, 0, 2, 0, 0, 3, 1, 1, 0, 1]",0.8055555555555558
Cavallino Matto,attraction,Tuscany,43.180728,10.549848,7,10,"[0, 0, 0, 1, 2, 2, 0, 4, 0, 0, 0, 1]",1.4722222222222217
Orbetello Camping Village,attraction,Tuscany,42.463496,11.185984,7,10,"[0, 0, 0, 0, 0, 3, 2, 2, 2, 0, 0, 1]",1.138888888888889
One Eyed Jack,attraction,Tuscany,43.76948,11.246859,7,10,"[1, 1, 0, 0, 1, 1, 2, 0, 2, 1, 1, 0]",0.47222222222222215
Leonardo da Vinci Museum,attraction,Tuscany,43.775,11.25896,7,10,"[0, 0, 1, 3, 0, 1, 1, 1, 0, 1, 2, 0]",0.8055555555555555
Capoliveri,attraction,Tuscany,42.745570946439,10.377970111833,7,10,"[0, 0, 0, 1, 0, 0, 3, 5, 0, 1, 0, 0]",2.3055555555555554
Montelupo Fiorentino centro storico,attraction,Tuscany,43.733073032378,11.020660400391,7,10,"[0, 0, 0, 1, 2, 2, 2, 1, 1, 1, 0, 0]",0.6388888888888888
Auditorium FLOG,attraction,Tuscany,43.795702369266,11.247693962093,7,10,"[2, 2, 1, 1, 1, 0, 1, 0, 0, 0, 1, 1]",0.47222222222222215
Piazza Sant'Ambrogio,attraction,Tuscany,43.771493,11.266348,7,10,"[0, 0, 3, 1, 0, 1, 1, 0, 0, 3, 0, 1]",1.1388888888888888
Piazza Beccaria,attraction,Tuscany,43.77072576125,11.270925921441,7,10,"[0, 0, 3, 0, 2, 0, 2, 1, 0, 1, 1, 0]",0.9722222222222223
Red Garter - House of Sizzle,attraction,Tuscany,43.768335682397,11.259881258011,7,10,"[0, 1, 0, 1, 1, 1, 1, 0, 2, 2, 1, 0]",0.47222222222222215
Pisa S.Rossore,poi,Tuscany,43.723446,10.387754,6,10,"[0, 0, 3, 1, 1, 0, 2, 0, 1, 1, 0, 1]",0.8055555555555558
Arezzo Terminal Stazione,poi,Tuscany,43.462298,11.875251,6,10,"[0, 0, 0, 1, 2, 1, 0, 0, 2, 1, 3, 0]",0.9722222222222222
Empoli,poi,Tuscany,43.715933,10.949476,6,10,"[0, 0, 3, 2, 0, 0, 1, 2, 0, 0, 0, 2]",1.1388888888888888
Viareggio,poi,Tuscany,43.873954,10.252689,6,10,"[2, 1, 1, 0, 1, 1, 2, 1, 0, 0, 1, 0]",0.47222222222222215
Da Meino,restaurant,Tuscany,42.359374,10.92018,6,10,"[0, 0, 0, 1, 0, 1, 3, 5, 0, 0, 0, 0]",2.305555555555555
Pizzosteria La Cambusa,restaurant,Tuscany,43.357713,10.454606,6,10,"[2, 0, 1, 1, 1, 0, 1, 1, 1, 0, 2, 0]",0.47222222222222215
La Buca,restaurant,Tuscany,43.904167,10.688688,6,10,"[2, 1, 1, 0, 0, 2, 0, 0, 0, 1, 1, 2]",0.6388888888888888
Ristorante W.O.W.,restaurant,Tuscany,43.895905,10.78926,6,10,"[0, 0, 3, 0, 1, 1, 1, 0, 0, 1, 2, 1]",0.8055555555555557
La Pace,restaurant,Tuscany,43.400347,10.866466,6,10,"[0, 0, 0, 1, 1, 1, 1, 5, 0, 0, 0, 1]",1.8055555555555556
Pizzeria Ristorante Il Trovatore,restaurant,Tuscany,43.469173,11.0405,6,10,"[0, 0, 0, 3, 1, 0, 1, 2, 2, 1, 0, 0]",0.9722222222222223
Gli Attortellati,restaurant,Tuscany,42.71782,11.087562,6,10,"[0, 1, 0, 1, 0, 1, 1, 2, 2, 1, 0, 1]",0.47222222222222215
Ristorante L'Appennino,restaurant,Tuscany,44.143192,11.241183,6,10,"[0, 0, 3, 2, 0, 1, 2, 0, 1, 0, 1, 0]",0.9722222222222223
Trattoria Pizzeria Dante,restaurant,Tuscany,43.769354,11.246793,6,10,"[2, 0, 0, 2, 1, 1, 0, 1, 0, 3, 0, 0]",0.9722222222222222
Borgo San Jacopo,restaurant,Tuscany,43.767927,11.251044,6,10,"[0, 0, 1, 2, 1, 1, 0, 1, 2, 1, 1, 0]",0.47222222222222215
Drogheria Bar & Grill,restaurant,Tuscany,43.77102,11.268178,6,10,"[0, 2, 0, 0, 3, 0, 2, 1, 1, 0, 1, 0]",0.9722222222222223
Osteria La Chiacchera,restaurant,Tuscany,43.320117,11.328913,6,10,"[0, 1, 0, 0, 0, 0, 2, 3, 1, 0, 3, 0]",1.3055555555555556
Osteria Il Carroccio,restaurant,Tuscany,43.317502,11.331465,6,10,"[0, 0, 0, 3, 0, 0, 1, 2, 1, 3, 0, 0]",1.3055555555555556
le Rotte Ghiotte,restaurant,Tuscany,43.468051,11.873865,6,10,"[1, 0, 0, 3, 2, 0, 0, 0, 2, 1, 0, 1]",0.9722222222222223
Enoteca della Fortezza,restaurant,Tuscany,42.813876,10.327863,6,10,"[0, 0, 0, 1, 2, 1, 2, 1, 3, 0, 0, 0]",0.9722222222222222
Pasticceria Patalani,restaurant,Tuscany,43.8700561,10.248346,6,10,"[0, 3, 0, 4, 0, 1, 1, 0, 0, 0, 1, 0]",1.6388888888888886
Procacci (Panini Tartufati / Alimentari di Lusso),restaurant,Tuscany,43.771761462029,11.251391226549,6,10,"[0, 1, 0, 1, 1, 0, 1, 2, 1, 0, 1, 2]",0.47222222222222215
Donnini,restaurant,Tuscany,43.771322495864,11.253876441478,6,10,"[0, 1, 0, 0, 1, 0, 2, 3, 0, 2, 1, 0]",0.9722222222222223
Gelateria Conti,restaurant,Tuscany,43.779991036263,11.280260682106,6,10,"[0, 2, 1, 1, 1, 1, 1, 2, 1, 0, 0, 0]",0.47222222222222215
Bar il Palio,restaurant,Tuscany,43.318711276017,11.3315749184,6,10,"[0, 0, 3, 1, 2, 0, 0, 1, 1, 1, 1, 0]",0.8055555555555558
Kroeg Pub Birreria,restaurant,Tuscany,43.322856,11.330925,6,10,"[0, 0, 2, 0, 0, 0, 0, 2, 1, 0, 2, 3]",1.1388888888888886
Feniglia,attraction,Tuscany,42.409031,11.208962,6,10,"[1, 0, 0, 1, 0, 1, 1, 4, 2, 0, 0, 0]",1.3055555555555556
Uffizi Gallery,attraction,Tuscany,43.767786,11.255311,6,10,"[0, 0, 0, 0, 0, 0, 0, 1, 0, 2, 3, 4]",1.8055555555555554
Museo Bardini,attraction,Tuscany,43.765025,11.258337,6,10,"[1, 0, 0, 1, 0, 1, 3, 1, 1, 2, 0, 0]",0.8055555555555555
Spiaggia di Lacona,attraction,Tuscany,42.759501884876,10.310098211533,6,10,"[0, 0, 0, 0, 1, 2, 2, 2, 1, 1, 1, 0]",0.6388888888888887
Moulin Rouge,attraction,Tuscany,44.009239,10.101008,6,10,"[0, 0, 0, 2, 1, 1, 0, 3, 2, 0, 0, 1]",0.9722222222222223
Passeggiata Viareggio,attraction,Tuscany,43.871539490094,10.24067401886,6,10,"[3, 0, 0, 2, 0, 2, 1, 0, 1, 1, 0, 0]",0.9722222222222223
Colle Val d'Elsa,attraction,Tuscany,43.422336787929,11.126629863437,6,10,"[1, 1, 0, 0, 0, 1, 0, 0, 4, 2, 1, 0]",1.3055555555555556
Borgo san luigi,attraction,Tuscany,43.388673321184,11.16130708174,6,10,"[0, 1, 0, 1, 0, 1, 0, 1, 0, 5, 0, 1]",1.805555555555556
Laguna di Orbetello,attraction,Tuscany,42.436691159574,11.208145206118,6,10,"[1, 0, 2, 1, 1, 1, 0, 2, 2, 0, 0, 0]",0.6388888888888888
Flet,attraction,Tuscany,43.769938,11.241743,6,10,"[1, 1, 0, 1, 2, 0, 2, 1, 0, 0, 2, 0]",0.6388888888888888
Farmacia dei Sani,attraction,Tuscany,43.792179,11.250695,6,10,"[0, 2, 1, 3, 0, 1, 0, 1, 1, 0, 0, 1]",0.8055555555555557
